"id","longitude","latitude","lat","long","address","neighborhood","city","metro_area","subregion","region","postal"
43,107.03401317307,-6.23632851498169,-6.23632851498169,107.03401317307,"My House, Jalan Mesiu 4, Bekasi Timur, Jawa Barat, 17111, IDN","Aren Jaya","Bekasi Timur","Kota Bekasi","Kota Bekasi","Jawa Barat","17111"
65,107.041296040667,-6.24337339438262,-6.24337339438262,107.041296040667,"Jalan Pulau Saparua 4 313, Bekasi Timur, Jawa Barat, 17111, IDN","Aren Jaya","Bekasi Timur","Kota Bekasi","Kota Bekasi","Jawa Barat","17111"
171,107.039808776363,-6.24103686893185,-6.24103686893185,107.039808776363,"Nagihh Toast, Jalan Pulau Yapen 3 58, Bekasi Timur, Jawa Barat, 17111, IDN","Aren Jaya","Bekasi Timur","Kota Bekasi","Kota Bekasi","Jawa Barat","17111"
457,107.035431562152,-6.23698173690959,-6.23698173690959,107.035431562152,"Praktek Dokter Hewan Drh. Ira Madani, Jalan Panataran 2, Bekasi Timur, Jawa Barat, 17111, IDN","Aren Jaya","Bekasi Timur","Kota Bekasi","Kota Bekasi","Jawa Barat","17111"
462,107.033616575134,-6.24586955702502,-6.24586955702502,107.033616575134,"Lapangan Volly Rt 07, Jalan Pulau Sumba 6 275, Bekasi Timur, Jawa Barat, 17111, IDN","Aren Jaya","Bekasi Timur","Kota Bekasi","Kota Bekasi","Jawa Barat","17111"
740,107.032692493478,-6.24703545394508,-6.24703545394508,107.032692493478,"Millagros, Jalan Manunggal, Bekasi Timur, Jawa Barat, 17111, IDN","Aren Jaya","Bekasi Timur","Kota Bekasi","Kota Bekasi","Jawa Barat","17111"
2,107.026869499612,-6.18712104481283,-6.18712104481283,107.026869499612,"Bahagia, Babelan, Jawa Barat, IDN","Bahagia","Babelan","Kota Bekasi","Bekasi","Jawa Barat",""
52,107.020146180951,-6.18608581175792,-6.18608581175792,107.020146180951,"Mushola Al-Barkah 2, Jalan Kyai Haji Noer Ali, Babelan, Jawa Barat, 17610, IDN","Bahagia","Babelan","Kota Bekasi","Bekasi","Jawa Barat","17610"
89,107.016854558932,-6.1959557093666,-6.1959557093666,107.016854558932,"Banananesia Korean Milk, Jalan Harapan Makmur 3, Babelan, Jawa Barat, 17610, IDN","Bahagia","Babelan","Kota Bekasi","Bekasi","Jawa Barat","17610"
113,107.010154646591,-6.18929616407433,-6.18929616407433,107.010154646591,"Suzuki, Jalan Ujung Harapan, Babelan, Jawa Barat, 17610, IDN","Bahagia","Babelan","Kota Bekasi","Bekasi","Jawa Barat","17610"
180,107.020392265572,-6.19227495531542,-6.19227495531542,107.020392265572,"Jalan Kyai Haji Noer Ali, Babelan, Jawa Barat, 17610, IDN","Bahagia","Babelan","Kota Bekasi","Bekasi","Jawa Barat","17610"
262,107.019929075057,-6.18238620868561,-6.18238620868561,107.019929075057,"Jalan Kyai Haji Noer Ali, Babelan, Jawa Barat, 17610, IDN","Bahagia","Babelan","Kota Bekasi","Bekasi","Jawa Barat","17610"
372,107.014215395063,-6.18237106381918,-6.18237106381918,107.014215395063,"Sedotmen, Perumahan Taman Wisata 2, Babelan, Jawa Barat, 17610, IDN","Bahagia","Babelan","Kota Bekasi","Bekasi","Jawa Barat","17610"
391,107.014651562178,-6.18618431590655,-6.18618431590655,107.014651562178,"Perumahan Taman Duta, Babelan, Jawa Barat, 17610, IDN","Bahagia","Babelan","Kota Bekasi","Bekasi","Jawa Barat","17610"
416,107.012218376993,-6.18424975565386,-6.18424975565386,107.012218376993,"La Mada Car Wash, Perumahan Taman Duta 48, Babelan, Jawa Barat, 17610, IDN","Bahagia","Babelan","Kota Bekasi","Bekasi","Jawa Barat","17610"
441,107.017365206843,-6.19023595661415,-6.19023595661415,107.017365206843,"Jalan Ujung Harapan, Babelan, Jawa Barat, 17610, IDN","Bahagia","Babelan","Kota Bekasi","Bekasi","Jawa Barat","17610"
488,107.025550672353,-6.18534251920413,-6.18534251920413,107.025550672353,"Jalan Sunan Giri 7, Babelan, Jawa Barat, 17610, IDN","Bahagia","Babelan","Kota Bekasi","Bekasi","Jawa Barat","17610"
491,107.0135400347,-6.19278585009696,-6.19278585009696,107.0135400347,"Arkan Yasmin, Gang Al Ikhlas 7, Babelan, Jawa Barat, 17610, IDN","Bahagia","Babelan","Kota Bekasi","Bekasi","Jawa Barat","17610"
520,107.014332056487,-6.1860450962797,-6.1860450962797,107.014332056487,"Mi Chin, Perumahan Taman Duta 30, Taman Asri, Babelan, Jawa Barat, 17610, IDN","Bahagia","Babelan","Kota Bekasi","Bekasi","Jawa Barat","17610"
688,107.028090299784,-6.19644316766381,-6.19644316766381,107.028090299784,"Jalan Kyai Haji Noer Ali, Babelan, Jawa Barat, 17610, IDN","Bahagia","Babelan","Kota Bekasi","Bekasi","Jawa Barat","17610"
737,107.009340790457,-6.18025120164285,-6.18025120164285,107.009340790457,"Pondok Ungu Permai, Babelan, Jawa Barat, 17610, IDN","Bahagia","Babelan","Kota Bekasi","Bekasi","Jawa Barat","17610"
768,107.018054889615,-6.18470040104591,-6.18470040104591,107.018054889615,"Bahagia, Babelan, Jawa Barat, IDN","Bahagia","Babelan","Kota Bekasi","Bekasi","Jawa Barat",""
786,107.024393747573,-6.19223105655231,-6.19223105655231,107.024393747573,"Jalan Guru Muhammad Raya, Babelan, Jawa Barat, 17610, IDN","Bahagia","Babelan","Kota Bekasi","Bekasi","Jawa Barat","17610"
796,107.024984579421,-6.19228214057232,-6.19228214057232,107.024984579421,"Jalan Guru Muhammad Raya, Babelan, Jawa Barat, 17610, IDN","Bahagia","Babelan","Kota Bekasi","Bekasi","Jawa Barat","17610"
94,106.98874576195,-6.31313511924245,-6.31313511924245,106.98874576195,"Jalan Sawo, Bantargebang, Jawa Barat, 17151, IDN","Bantargebang","Bantargebang","Kota Bekasi","Kota Bekasi","Jawa Barat","17151"
102,106.991010255953,-6.30977175754987,-6.30977175754987,106.991010255953,"Warung Rakyat Pom MINI, Jalan Haji Jole, Bantargebang, Jawa Barat, 17151, IDN","Bantargebang","Bantargebang","Kota Bekasi","Kota Bekasi","Jawa Barat","17151"
121,106.982993243474,-6.31280793382781,-6.31280793382781,106.982993243474,"Warung Makan Sunda Ibu Ati, Jalan Siliwangi, Bantargebang, Jawa Barat, 17151, IDN","Bantargebang","Bantargebang","Kota Bekasi","Kota Bekasi","Jawa Barat","17151"
201,106.987034641221,-6.31598377839067,-6.31598377839067,106.987034641221,"Warkop Makmur Sentosa, Jalan Raya Narogong, Bantargebang, Jawa Barat, 17151, IDN","Bantargebang","Bantargebang","Kota Bekasi","Kota Bekasi","Jawa Barat","17151"
290,106.977329309916,-6.32567927352726,-6.32567927352726,106.977329309916,"Jalan Pangkalan 1B, Bantargebang, Jawa Barat, 17151, IDN","Bantargebang","Bantargebang","Kota Bekasi","Kota Bekasi","Jawa Barat","17151"
318,106.986635211415,-6.31308489531141,-6.31308489531141,106.986635211415,"Figo Bakau, Jalan Siliwangi, Bantargebang, Jawa Barat, 17151, IDN","Bantargebang","Bantargebang","Kota Bekasi","Kota Bekasi","Jawa Barat","17151"
357,106.986562067154,-6.31847960460853,-6.31847960460853,106.986562067154,"Honda, Jalan Raya Narogong, Bantargebang, Jawa Barat, 17151, IDN","Bantargebang","Bantargebang","Kota Bekasi","Kota Bekasi","Jawa Barat","17151"
411,106.980557412542,-6.31370516139968,-6.31370516139968,106.980557412542,"Perumahan Villa Nusa Indah, Bantargebang, Jawa Barat, 17151, IDN","Bantargebang","Bantargebang","Kota Bekasi","Kota Bekasi","Jawa Barat","17151"
461,106.979082072479,-6.3054951543251,-6.3054951543251,106.979082072479,"Jalan Swadaya 2, Bantargebang, Jawa Barat, 17151, IDN","Bantargebang","Bantargebang","Kota Bekasi","Kota Bekasi","Jawa Barat","17151"
479,106.988347973327,-6.31186238957022,-6.31186238957022,106.988347973327,"Kakindoa Shop, Jalan Mustikasari Raya, Bantargebang, Jawa Barat, 17151, IDN","Bantargebang","Bantargebang","Kota Bekasi","Kota Bekasi","Jawa Barat","17151"
524,106.987979191333,-6.3143810935199,-6.3143810935199,106.987979191333,"Sablon Satuan Digital & Manual, Jalan Sawo, Bantargebang, Jawa Barat, 17151, IDN","Bantargebang","Bantargebang","Kota Bekasi","Kota Bekasi","Jawa Barat","17151"
573,106.980402268698,-6.32710116551558,-6.32710116551558,106.980402268698,"Jalan Pangkalan 1B, Bantargebang, Jawa Barat, 17151, IDN","Bantargebang","Bantargebang","Kota Bekasi","Kota Bekasi","Jawa Barat","17151"
591,106.984856582067,-6.32509624298805,-6.32509624298805,106.984856582067,"17151, Bantargebang, Jawa Barat, IDN","Bantargebang","Bantargebang","Kota Bekasi","Kota Bekasi","Jawa Barat","17151"
628,106.981361540364,-6.3168205897581,-6.3168205897581,106.981361540364,"17151, Bantargebang, Jawa Barat, IDN","Bantargebang","Bantargebang","Kota Bekasi","Kota Bekasi","Jawa Barat","17151"
142,107.001592027269,-6.23575587030406,-6.23575587030406,107.001592027269,"17112, Bekasi Timur, Jawa Barat, IDN","Bekasi Jaya","Bekasi Timur","Kota Bekasi","Kota Bekasi","Jawa Barat","17112"
164,107.018287208931,-6.22918021082204,-6.22918021082204,107.018287208931,"Global Persada Mandiri School, Jalan Mekarsari, Bekasi Timur, Jawa Barat, 17112, IDN","Bekasi Jaya","Bekasi Timur","Kota Bekasi","Kota Bekasi","Jawa Barat","17112"
176,107.009529730094,-6.23178094015526,-6.23178094015526,107.009529730094,"Boy's Speed, Jalan Haji Agus Salim, Bekasi Timur, Jawa Barat, 17112, IDN","Bekasi Jaya","Bekasi Timur","Kota Bekasi","Kota Bekasi","Jawa Barat","17112"
191,107.009987114413,-6.24027253160972,-6.24027253160972,107.009987114413,"Jalan Taman Kota Bekasi 9, Cluster Bougenville, Bekasi Timur, Jawa Barat, 17112, IDN","Bekasi Jaya","Bekasi Timur","Kota Bekasi","Kota Bekasi","Jawa Barat","17112"
268,107.015478143687,-6.23155270509771,-6.23155270509771,107.015478143687,"Jalan Irigasi Danita Barat 22 9, Bekasi Timur, Jawa Barat, 17112, IDN","Bekasi Jaya","Bekasi Timur","Kota Bekasi","Kota Bekasi","Jawa Barat","17112"
473,107.013014231436,-6.2252567794363,-6.2252567794363,107.013014231436,"Jalan Haji Agus Salim, Bekasi Timur, Jawa Barat, 17112, IDN","Bekasi Jaya","Bekasi Timur","Kota Bekasi","Kota Bekasi","Jawa Barat","17112"
499,107.012784906147,-6.24486571188711,-6.24486571188711,107.012784906147,"Jalan Baru Under Pass, Bekasi Timur, Jawa Barat, 17112, IDN","Bekasi Jaya","Bekasi Timur","Kota Bekasi","Kota Bekasi","Jawa Barat","17112"
523,107.02988737147,-6.22277636643788,-6.22277636643788,107.02988737147,"17112, Bekasi Timur, Jawa Barat, IDN","Bekasi Jaya","Bekasi Timur","Kota Bekasi","Kota Bekasi","Jawa Barat","17112"
554,107.028959510802,-6.22609613625858,-6.22609613625858,107.028959510802,"Royal Ikan Cupang, Jalan Under Pass Duren jaya, Bekasi Timur, Jawa Barat, 17112, IDN","Bekasi Jaya","Bekasi Timur","Kota Bekasi","Kota Bekasi","Jawa Barat","17112"
772,107.024652390243,-6.22621433468165,-6.22621433468165,107.024652390243,"Sjp Bonsai, Jalan Under Pass Duren jaya, Bekasi Timur, Jawa Barat, 17112, IDN","Bekasi Jaya","Bekasi Timur","Kota Bekasi","Kota Bekasi","Jawa Barat","17112"
240,106.958187723018,-6.21981816433776,-6.21981816433776,106.958187723018,"Jalan I Gusti Ngurah Rai, Bekasi Barat, Jawa Barat, 17134, IDN","Bintara","Bekasi Barat","Kota Bekasi","Kota Bekasi","Jawa Barat","17134"
276,106.959909486873,-6.23001479256173,-6.23001479256173,106.959909486873,"Otu Haircuts Barbershop, Jalan Pondok Cipta Griya 15, Bekasi Barat, Jawa Barat, 17134, IDN","Bintara","Bekasi Barat","Kota Bekasi","Kota Bekasi","Jawa Barat","17134"
324,106.961363834285,-6.23192042168332,-6.23192042168332,106.961363834285,"Jalan Bintara Raya, Bekasi Barat, Jawa Barat, 17134, IDN","Bintara","Bekasi Barat","Kota Bekasi","Kota Bekasi","Jawa Barat","17134"
327,106.949084319766,-6.22406400671107,-6.22406400671107,106.949084319766,"Ayam Bakar Madu Dan Goreng Kremes Mama Ira, Jalan Bintara 2 44, Bekasi Barat, Jawa Barat, 17134, IDN","Bintara","Bekasi Barat","Kota Bekasi","Kota Bekasi","Jawa Barat","17134"
418,106.95922940578,-6.22428093461235,-6.22428093461235,106.95922940578,"Aiueo - Griya Bintara Indah, Jalan Bintara Kencana, Bekasi Barat, Jawa Barat, 17134, IDN","Bintara","Bekasi Barat","Kota Bekasi","Kota Bekasi","Jawa Barat","17134"
496,106.951302279035,-6.22940372330835,-6.22940372330835,106.951302279035,"Jalan Bintara 1 162, Bekasi Barat, Jawa Barat, 17134, IDN","Bintara","Bekasi Barat","Kota Bekasi","Kota Bekasi","Jawa Barat","17134"
555,106.957770580472,-6.22791430141488,-6.22791430141488,106.957770580472,"Gang Abenk, Bekasi Barat, Jawa Barat, 17134, IDN","Bintara","Bekasi Barat","Kota Bekasi","Kota Bekasi","Jawa Barat","17134"
617,106.956859382473,-6.22676944370841,-6.22676944370841,106.956859382473,"Jalan Bintara 8 9, Bekasi Barat, Jawa Barat, 17134, IDN","Bintara","Bekasi Barat","Kota Bekasi","Kota Bekasi","Jawa Barat","17134"
782,106.957494271633,-6.22315069907394,-6.22315069907394,106.957494271633,"Pangkalan Gas Lpg Dan Toko Sembako, Jalan Bintara Kencana Barat 7 16, Bekasi Barat, Jawa Barat, 17134, IDN","Bintara","Bekasi Barat","Kota Bekasi","Kota Bekasi","Jawa Barat","17134"
790,106.950687749881,-6.23011608647065,-6.23011608647065,106.950687749881,"Ibu Tya/ Bp Farid, Gang Engkong Mian 61, Bekasi Barat, Jawa Barat, 17134, IDN","Bintara","Bekasi Barat","Kota Bekasi","Kota Bekasi","Jawa Barat","17134"
22,106.950714826603,-6.23700607930093,-6.23700607930093,106.950714826603,"Lar.Nailstudio, Jalan Bintara 3, Bekasi Barat, Jawa Barat, 17136, IDN","Bintara Jaya","Bekasi Barat","Kota Bekasi","Kota Bekasi","Jawa Barat","17136"
194,106.948541149328,-6.24832717613036,-6.24832717613036,106.948541149328,"Jalan Plamboyan 25A, Bekasi Barat, Jawa Barat, 17136, IDN","Bintara Jaya","Bekasi Barat","Kota Bekasi","Kota Bekasi","Jawa Barat","17136"
213,106.957777599671,-6.24048673357856,-6.24048673357856,106.957777599671,"Jalan Haji Tiban, Bekasi Barat, Jawa Barat, 17136, IDN","Bintara Jaya","Bekasi Barat","Kota Bekasi","Kota Bekasi","Jawa Barat","17136"
294,106.952113490455,-6.2421448878915,-6.2421448878915,106.952113490455,"Sekolah Kami, Gang Pojok 38C, Bekasi Barat, Jawa Barat, 17136, IDN","Bintara Jaya","Bekasi Barat","Kota Bekasi","Kota Bekasi","Jawa Barat","17136"
321,106.948793769096,-6.24675769523432,-6.24675769523432,106.948793769096,"Rumah Makan 99, Jalan Bintara Jaya 2 34, Bekasi Barat, Jawa Barat, 17136, IDN","Bintara Jaya","Bekasi Barat","Kota Bekasi","Kota Bekasi","Jawa Barat","17136"
365,106.952912540904,-6.23906868961636,-6.23906868961636,106.952912540904,"Jalan Bintara Jaya 8, Bekasi Barat, Jawa Barat, 17136, IDN","Bintara Jaya","Bekasi Barat","Kota Bekasi","Kota Bekasi","Jawa Barat","17136"
466,106.960525597494,-6.23604973109207,-6.23604973109207,106.960525597494,"17136, Bekasi Barat, Jawa Barat, IDN","Bintara Jaya","Bekasi Barat","Kota Bekasi","Kota Bekasi","Jawa Barat","17136"
476,106.948763244235,-6.23303197101339,-6.23303197101339,106.948763244235,"Gang Dukuh 29, Bekasi Barat, Jawa Barat, 17136, IDN","Bintara Jaya","Bekasi Barat","Kota Bekasi","Kota Bekasi","Jawa Barat","17136"
509,106.960235176363,-6.23646066945152,-6.23646066945152,106.960235176363,"Jalan Bintara 9, Bekasi Barat, Jawa Barat, 17136, IDN","Bintara Jaya","Bekasi Barat","Kota Bekasi","Kota Bekasi","Jawa Barat","17136"
584,106.952098478722,-6.23755015487216,-6.23755015487216,106.952098478722,"Jalan Tol Lingkar Luar, Bekasi Barat, Jawa Barat, 17136, IDN","Bintara Jaya","Bekasi Barat","Kota Bekasi","Kota Bekasi","Jawa Barat","17136"
761,106.949304383226,-6.24052310648554,-6.24052310648554,106.949304383226,"Jalan Gunung Salak 70, Bekasi Barat, Jawa Barat, 17136, IDN","Bintara Jaya","Bekasi Barat","Kota Bekasi","Kota Bekasi","Jawa Barat","17136"
8,106.9760255076,-6.30423321207789,-6.30423321207789,106.9760255076,"17117, Rawalumbu, Jawa Barat, IDN","Bojong Menteng","Rawalumbu","Kota Bekasi","Kota Bekasi","Jawa Barat","17117"
72,106.97551358274,-6.29838376036496,-6.29838376036496,106.97551358274,"Jalan Aceh Rapiah, Rawalumbu, Jawa Barat, 17117, IDN","Bojong Menteng","Rawalumbu","Kota Bekasi","Kota Bekasi","Jawa Barat","17117"
96,106.976666530566,-6.30069196073873,-6.30069196073873,106.976666530566,"Jalan Baru Cipendawa, Rawalumbu, Jawa Barat, 17117, IDN","Bojong Menteng","Rawalumbu","Kota Bekasi","Kota Bekasi","Jawa Barat","17117"
236,106.977043542695,-6.29511250085264,-6.29511250085264,106.977043542695,"Jalan Aceh Rapiah, Rawalumbu, Jawa Barat, 17117, IDN","Bojong Menteng","Rawalumbu","Kota Bekasi","Kota Bekasi","Jawa Barat","17117"
439,106.978558242367,-6.29977805035963,-6.29977805035963,106.978558242367,"Jalan Baru Cipendawa, Rawalumbu, Jawa Barat, 17117, IDN","Bojong Menteng","Rawalumbu","Kota Bekasi","Kota Bekasi","Jawa Barat","17117"
484,106.979437457342,-6.29799280440233,-6.29799280440233,106.979437457342,"17117, Rawalumbu, Jawa Barat, IDN","Bojong Menteng","Rawalumbu","Kota Bekasi","Kota Bekasi","Jawa Barat","17117"
494,106.987202116817,-6.29949190484122,-6.29949190484122,106.987202116817,"Jalan Cipendawa Lama, Rawalumbu, Jawa Barat, 17117, IDN","Bojong Menteng","Rawalumbu","Kota Bekasi","Kota Bekasi","Jawa Barat","17117"
533,106.977053403711,-6.3019957461816,-6.3019957461816,106.977053403711,"17117, Rawalumbu, Jawa Barat, IDN","Bojong Menteng","Rawalumbu","Kota Bekasi","Kota Bekasi","Jawa Barat","17117"
736,106.991718797098,-6.30495354112902,-6.30495354112902,106.991718797098,"Jalan Meranti Selatan 3 310, Rawalumbu, Jawa Barat, 17117, IDN","Bojong Menteng","Rawalumbu","Kota Bekasi","Kota Bekasi","Jawa Barat","17117"
104,106.991143191784,-6.27877056831912,-6.27877056831912,106.991143191784,"Jalan Mandor Idjo, Rawalumbu, Jawa Barat, 17116, IDN","Bojong Rawalumbu","Rawalumbu","Kota Bekasi","Kota Bekasi","Jawa Barat","17116"
105,106.977710120823,-6.28540360559267,-6.28540360559267,106.977710120823,"Rumah Quran Bunda Aisyah 1, Jalan Kemang Dahlia 24, Rawalumbu, Jawa Barat, 17116, IDN","Bojong Rawalumbu","Rawalumbu","Kota Bekasi","Kota Bekasi","Jawa Barat","17116"
107,106.993812304355,-6.27828833983483,-6.27828833983483,106.993812304355,"Sd Negeri Bojong Menteng 7, Jalan Mesjid Bojong Rawa, Rawalumbu, Jawa Barat, 17116, IDN","Bojong Rawalumbu","Rawalumbu","Kota Bekasi","Kota Bekasi","Jawa Barat","17116"
118,106.986945263406,-6.27733916442782,-6.27733916442782,106.986945263406,"Jalan Duta 12 22, Rawalumbu, Jawa Barat, 17116, IDN","Bojong Rawalumbu","Rawalumbu","Kota Bekasi","Kota Bekasi","Jawa Barat","17116"
160,106.988886629923,-6.2773607579432,-6.2773607579432,106.988886629923,"Sekolah Victory Plus Bekasi, Jalan Citra Niaga Raya, Rawalumbu, Jawa Barat, 17116, IDN","Bojong Rawalumbu","Rawalumbu","Kota Bekasi","Kota Bekasi","Jawa Barat","17116"
224,106.979541971715,-6.28592224341755,-6.28592224341755,106.979541971715,"Jalan Kemang Dahlia 3 12, Rawalumbu, Jawa Barat, 17116, IDN","Bojong Rawalumbu","Rawalumbu","Kota Bekasi","Kota Bekasi","Jawa Barat","17116"
248,106.979535261103,-6.28093585967801,-6.28093585967801,106.979535261103,"Gta, Jalan Berlian 9, Rawalumbu, Jawa Barat, 17116, IDN","Bojong Rawalumbu","Rawalumbu","Kota Bekasi","Kota Bekasi","Jawa Barat","17116"
265,107.002510924587,-6.28623191860896,-6.28623191860896,107.002510924587,"Grc Bekasi Tata Kreasi Amand Art, Jalan Bojong Permai 12, Rawalumbu, Jawa Barat, 17116, IDN","Bojong Rawalumbu","Rawalumbu","Kota Bekasi","Kota Bekasi","Jawa Barat","17116"
334,106.998999063806,-6.28447837498121,-6.28447837498121,106.998999063806,"Jalan Lumbu Utara 1A 149, Rawalumbu, Jawa Barat, 17116, IDN","Bojong Rawalumbu","Rawalumbu","Kota Bekasi","Kota Bekasi","Jawa Barat","17116"
374,106.991624975007,-6.2878247751286,-6.2878247751286,106.991624975007,"Jalan Blue Safir, Rawalumbu, Jawa Barat, 17116, IDN","Bojong Rawalumbu","Rawalumbu","Kota Bekasi","Kota Bekasi","Jawa Barat","17116"
381,107.003405540204,-6.28318034398174,-6.28318034398174,107.003405540204,"Ayuhennaartbekasi, Jalan Rawa Lumbu Ujung, Rawalumbu, Jawa Barat, 17116, IDN","Bojong Rawalumbu","Rawalumbu","Kota Bekasi","Kota Bekasi","Jawa Barat","17116"
405,106.988089816904,-6.27993540783588,-6.27993540783588,106.988089816904,"Gang Rawa, Rawalumbu, Jawa Barat, 17116, IDN","Bojong Rawalumbu","Rawalumbu","Kota Bekasi","Kota Bekasi","Jawa Barat","17116"
456,107.001968802637,-6.28239379439354,-6.28239379439354,107.001968802637,"Jasmine Jahit, Jalan Lumbu Timur Raya, Rawalumbu, Jawa Barat, 17116, IDN","Bojong Rawalumbu","Rawalumbu","Kota Bekasi","Kota Bekasi","Jawa Barat","17116"
508,106.993540852761,-6.29176538148608,-6.29176538148608,106.993540852761,"Aulya Apotek, Jalan Mirah Delima 299, Rawalumbu, Jawa Barat, 17116, IDN","Bojong Rawalumbu","Rawalumbu","Kota Bekasi","Kota Bekasi","Jawa Barat","17116"
549,106.989021882827,-6.27471877904787,-6.27471877904787,106.989021882827,"Islamic Elementary School Of Al-Azhar 9, Jalan Mitra Duta, Rawalumbu, Jawa Barat, 17116, IDN","Bojong Rawalumbu","Rawalumbu","Kota Bekasi","Kota Bekasi","Jawa Barat","17116"
586,107.002227067089,-6.27843722320595,-6.27843722320595,107.002227067089,"Home Azkia S.H, Jalan Rawa Lumbu Ujung 2, Rawalumbu, Jawa Barat, 17116, IDN","Bojong Rawalumbu","Rawalumbu","Kota Bekasi","Kota Bekasi","Jawa Barat","17116"
588,107.005542615102,-6.28099036059286,-6.28099036059286,107.005542615102,"Jalan Bojong Indah, Rawalumbu, Jawa Barat, 17116, IDN","Bojong Rawalumbu","Rawalumbu","Kota Bekasi","Kota Bekasi","Jawa Barat","17116"
596,106.999742587202,-6.2801144542847,-6.2801144542847,106.999742587202,"Jalan Dalang, Rawalumbu, Jawa Barat, 17116, IDN","Bojong Rawalumbu","Rawalumbu","Kota Bekasi","Kota Bekasi","Jawa Barat","17116"
615,106.993410984139,-6.27429142588919,-6.27429142588919,106.993410984139,"Jalan Bambu Kuning Selatan, Rawalumbu, Jawa Barat, 17116, IDN","Bojong Rawalumbu","Rawalumbu","Kota Bekasi","Kota Bekasi","Jawa Barat","17116"
677,107.001297950044,-6.28027837729255,-6.28027837729255,107.001297950044,"17116, Rawalumbu, Jawa Barat, IDN","Bojong Rawalumbu","Rawalumbu","Kota Bekasi","Kota Bekasi","Jawa Barat","17116"
687,107.002891636055,-6.27744990033958,-6.27744990033958,107.002891636055,"Toko Yuki, Jalan Rawa Lumbu Ujung 7, Rawalumbu, Jawa Barat, 17116, IDN","Bojong Rawalumbu","Rawalumbu","Kota Bekasi","Kota Bekasi","Jawa Barat","17116"
745,106.999895150567,-6.27929410474212,-6.27929410474212,106.999895150567,"Anjar Asmara, Jalan Dalang, Rawalumbu, Jawa Barat, 17116, IDN","Bojong Rawalumbu","Rawalumbu","Kota Bekasi","Kota Bekasi","Jawa Barat","17116"
378,107.040648755874,-6.31331385924857,-6.31331385924857,107.040648755874,"Jalan Garuda 3, Setu, Jawa Barat, 17320, IDN","Cijengkol","Setu","Kota Bekasi","Bekasi","Jawa Barat","17320"
4,107.028305338577,-6.32219206440492,-6.32219206440492,107.028305338577,"Jalan Amal, Mustika Jaya, Jawa Barat, 17155, IDN","Cimuning","Mustika Jaya","Kota Bekasi","Kota Bekasi","Jawa Barat","17155"
37,107.025901540371,-6.30839924910399,-6.30839924910399,107.025901540371,"Bakso Balungan, Jalan Zamrud Utara 97B, Mustika Jaya, Jawa Barat, 17155, IDN","Cimuning","Mustika Jaya","Kota Bekasi","Kota Bekasi","Jawa Barat","17155"
67,107.036986173371,-6.311165241692,-6.311165241692,107.036986173371,"Jalan Gondang, Mustika Jaya, Jawa Barat, 17155, IDN","Cimuning","Mustika Jaya","Kota Bekasi","Kota Bekasi","Jawa Barat","17155"
106,107.030577301532,-6.31972678882061,-6.31972678882061,107.030577301532,"Rahmatul Ummah, Jalan Letnan Jenderal Suprapto, Mustika Jaya, Jawa Barat, 17155, IDN","Cimuning","Mustika Jaya","Kota Bekasi","Kota Bekasi","Jawa Barat","17155"
238,107.032723902893,-6.32101749690202,-6.32101749690202,107.032723902893,"Jalan Letnan Jenderal Suprapto, Mustika Jaya, Jawa Barat, 17155, IDN","Cimuning","Mustika Jaya","Kota Bekasi","Kota Bekasi","Jawa Barat","17155"
256,107.022687570126,-6.3143762309069,-6.3143762309069,107.022687570126,"Perumahan Dukuh Zamrud, Mustika Jaya, Jawa Barat, 17155, IDN","Cimuning","Mustika Jaya","Kota Bekasi","Kota Bekasi","Jawa Barat","17155"
280,107.024456775552,-6.31742320040613,-6.31742320040613,107.024456775552,"Perumahan Dukuh Zamrud, Mustika Jaya, Jawa Barat, 17155, IDN","Cimuning","Mustika Jaya","Kota Bekasi","Kota Bekasi","Jawa Barat","17155"
295,107.016669843926,-6.32586233474816,-6.32586233474816,107.016669843926,"Roiffadillah, Jalan Elang 12 35, Mustika Jaya, Jawa Barat, 17155, IDN","Cimuning","Mustika Jaya","Kota Bekasi","Kota Bekasi","Jawa Barat","17155"
297,107.018422608653,-6.32025966519089,-6.32025966519089,107.018422608653,"Perumahan Dukuh Zamrud, Mustika Jaya, Jawa Barat, 17155, IDN","Cimuning","Mustika Jaya","Kota Bekasi","Kota Bekasi","Jawa Barat","17155"
313,107.037910797244,-6.30699498115949,-6.30699498115949,107.037910797244,"Jalan Gondang, Mustika Jaya, Jawa Barat, 17155, IDN","Cimuning","Mustika Jaya","Kota Bekasi","Kota Bekasi","Jawa Barat","17155"
373,107.033974034688,-6.31897438896344,-6.31897438896344,107.033974034688,"Jalan Khairul Bariyyah, Mustika Jaya, Jawa Barat, 17155, IDN","Cimuning","Mustika Jaya","Kota Bekasi","Kota Bekasi","Jawa Barat","17155"
442,107.017618104486,-6.31938216994866,-6.31938216994866,107.017618104486,"Jalan Zamrud Selatan, Mustika Jaya, Jawa Barat, 17155, IDN","Cimuning","Mustika Jaya","Kota Bekasi","Kota Bekasi","Jawa Barat","17155"
490,107.03016389075,-6.32295534473777,-6.32295534473777,107.03016389075,"Elmeera, Jalan Amal, Mustika Jaya, Jawa Barat, 17155, IDN","Cimuning","Mustika Jaya","Kota Bekasi","Kota Bekasi","Jawa Barat","17155"
529,107.034522843706,-6.31652338142335,-6.31652338142335,107.034522843706,"17155, Mustika Jaya, Jawa Barat, IDN","Cimuning","Mustika Jaya","Kota Bekasi","Kota Bekasi","Jawa Barat","17155"
551,107.026670073613,-6.32226363292271,-6.32226363292271,107.026670073613,"Jalan Sirih Prada, Mustika Jaya, Jawa Barat, 17155, IDN","Cimuning","Mustika Jaya","Kota Bekasi","Kota Bekasi","Jawa Barat","17155"
567,107.036396602745,-6.30704597478545,-6.30704597478545,107.036396602745,"17155, Mustika Jaya, Jawa Barat, IDN","Cimuning","Mustika Jaya","Kota Bekasi","Kota Bekasi","Jawa Barat","17155"
600,107.013810673503,-6.32491203693694,-6.32491203693694,107.013810673503,"Perumahan Bekasi Timur Regency 1, Mustika Jaya, Jawa Barat, 17155, IDN","Cimuning","Mustika Jaya","Kota Bekasi","Kota Bekasi","Jawa Barat","17155"
651,107.019776762308,-6.31980382248636,-6.31980382248636,107.019776762308,"Jalan Letnan Jenderal Suprapto, Mustika Jaya, Jawa Barat, 17155, IDN","Cimuning","Mustika Jaya","Kota Bekasi","Kota Bekasi","Jawa Barat","17155"
696,107.025859931124,-6.31886460160261,-6.31886460160261,107.025859931124,"Jalan Letnan Jenderal Suprapto, Mustika Jaya, Jawa Barat, 17155, IDN","Cimuning","Mustika Jaya","Kota Bekasi","Kota Bekasi","Jawa Barat","17155"
734,107.024504418876,-6.31613254311098,-6.31613254311098,107.024504418876,"Dukuhzamrud Blok I43 No26, Perumahan Dukuh Zamrud 51, Mustika Jaya, Jawa Barat, 17155, IDN","Cimuning","Mustika Jaya","Kota Bekasi","Kota Bekasi","Jawa Barat","17155"
81,107.026130825484,-6.23069779035651,-6.23069779035651,107.026130825484,"Jalan Durian 5 7, Bekasi Timur, Jawa Barat, 17111, IDN","Duren Jaya","Bekasi Timur","Kota Bekasi","Kota Bekasi","Jawa Barat","17111"
108,107.025278210154,-6.24450396648358,-6.24450396648358,107.025278210154,"Jalan Pulau Nias 109, Bekasi Timur, Jawa Barat, 17111, IDN","Duren Jaya","Bekasi Timur","Kota Bekasi","Kota Bekasi","Jawa Barat","17111"
136,107.026740620635,-6.23757487898858,-6.23757487898858,107.026740620635,"Sido Mulyo Kitchen Set, Jalan Pahlawan, Bekasi Timur, Jawa Barat, 17111, IDN","Duren Jaya","Bekasi Timur","Kota Bekasi","Kota Bekasi","Jawa Barat","17111"
140,107.01743538834,-6.23980295767048,-6.23980295767048,107.01743538834,"Raa.Beautystudio, Jalan Dukuh Guriang Permai, Bekasi Timur, Jawa Barat, 17111, IDN","Duren Jaya","Bekasi Timur","Kota Bekasi","Kota Bekasi","Jawa Barat","17111"
179,107.015703916035,-6.24002674720418,-6.24002674720418,107.015703916035,"Klinik Tumbuh Kembang Anak Yamet Bekasi, Jalan Baru Under Pass, Bekasi Timur, Jawa Barat, 17111, IDN","Duren Jaya","Bekasi Timur","Kota Bekasi","Kota Bekasi","Jawa Barat","17111"
241,107.035613386058,-6.22967494000898,-6.22967494000898,107.035613386058,"Ice The Gun Es Kelapa Duren, Jalan Kusuma Utara 12, Bekasi Timur, Jawa Barat, 17111, IDN","Duren Jaya","Bekasi Timur","Kota Bekasi","Kota Bekasi","Jawa Barat","17111"
426,107.022406701261,-6.23888625128632,-6.23888625128632,107.022406701261,"Jalan Meranti 5, Bekasi Timur, Jawa Barat, 17111, IDN","Duren Jaya","Bekasi Timur","Kota Bekasi","Kota Bekasi","Jawa Barat","17111"
464,107.024832257435,-6.24269937820209,-6.24269937820209,107.024832257435,"Tk Nurul Iman, Jalan Puri Juanda Regency 44, Bekasi Timur, Jawa Barat, 17111, IDN","Duren Jaya","Bekasi Timur","Kota Bekasi","Kota Bekasi","Jawa Barat","17111"
607,107.028125932216,-6.22810644696113,-6.22810644696113,107.028125932216,"Psychotronica, Jalan Kesuma 2 8, Bekasi Timur, Jawa Barat, 17111, IDN","Duren Jaya","Bekasi Timur","Kota Bekasi","Kota Bekasi","Jawa Barat","17111"
780,107.01989049562,-6.23569013620424,-6.23569013620424,107.01989049562,"Jalan Candi Prambanan 5 112, Bekasi Timur, Jawa Barat, 17111, IDN","Duren Jaya","Bekasi Timur","Kota Bekasi","Kota Bekasi","Jawa Barat","17111"
41,107.013889029941,-6.22430266982558,-6.22430266982558,107.013889029941,"17123, Bekasi Utara, Jawa Barat, IDN","Harapan Baru","Bekasi Utara","Kota Bekasi","Kota Bekasi","Jawa Barat","17123"
263,107.017962308657,-6.20924039018196,-6.20924039018196,107.017962308657,"Jalan Summer Ville, Bekasi Utara, Jawa Barat, 17123, IDN","Harapan Baru","Bekasi Utara","Kota Bekasi","Kota Bekasi","Jawa Barat","17123"
282,107.015179199206,-6.21429374531567,-6.21429374531567,107.015179199206,"Jalan Prima Harapan Regency 2, Prima Harapan Regency, Bekasi Utara, Jawa Barat, 17123, IDN","Harapan Baru","Bekasi Utara","Kota Bekasi","Kota Bekasi","Jawa Barat","17123"
369,107.015332106006,-6.21374268887468,-6.21374268887468,107.015332106006,"Warung Makan Mba Sri, Griya Teras Bintaro, Jalan Prima Harapan Regensi, Bekasi Utara, Jawa Barat, 17123, IDN","Harapan Baru","Bekasi Utara","Kota Bekasi","Kota Bekasi","Jawa Barat","17123"
382,107.017889089081,-6.21057445486924,-6.21057445486924,107.017889089081,"Jalan Summer Ville 11, Bekasi Utara, Jawa Barat, 17123, IDN","Harapan Baru","Bekasi Utara","Kota Bekasi","Kota Bekasi","Jawa Barat","17123"
385,107.014181154069,-6.21067940621776,-6.21067940621776,107.014181154069,"Jalan Villa Mas Indah 5, Bekasi Utara, Jawa Barat, 17123, IDN","Harapan Baru","Bekasi Utara","Kota Bekasi","Kota Bekasi","Jawa Barat","17123"
478,107.012982855092,-6.22375946151964,-6.22375946151964,107.012982855092,"Jalan Perjuangan, Bekasi Utara, Jawa Barat, 17123, IDN","Harapan Baru","Bekasi Utara","Kota Bekasi","Kota Bekasi","Jawa Barat","17123"
492,107.018515489414,-6.21805964983116,-6.21805964983116,107.018515489414,"Jalan Duta Harapan 5, Bekasi Utara, Jawa Barat, 17123, IDN","Harapan Baru","Bekasi Utara","Kota Bekasi","Kota Bekasi","Jawa Barat","17123"
594,107.013202633314,-6.21589382166276,-6.21589382166276,107.013202633314,"Jalan Prima Harapan Regensi, Bekasi Utara, Jawa Barat, 17123, IDN","Harapan Baru","Bekasi Utara","Kota Bekasi","Kota Bekasi","Jawa Barat","17123"
667,107.017071931494,-6.21162964623889,-6.21162964623889,107.017071931494,"Jalan Summer Ville 11, Bekasi Utara, Jawa Barat, 17123, IDN","Harapan Baru","Bekasi Utara","Kota Bekasi","Kota Bekasi","Jawa Barat","17123"
781,107.014644224508,-6.21853140202534,-6.21853140202534,107.014644224508,"Jalan Prima Harapan Regensi 7, Prima Harapan Regency, Bekasi Utara, Jawa Barat, 17123, IDN","Harapan Baru","Bekasi Utara","Kota Bekasi","Kota Bekasi","Jawa Barat","17123"
39,106.991033961494,-6.19987428365957,-6.19987428365957,106.991033961494,"17124, Bekasi Utara, Jawa Barat, IDN","Harapan Jaya","Bekasi Utara","Kota Bekasi","Kota Bekasi","Jawa Barat","17124"
144,106.992770375724,-6.20576270296805,-6.20576270296805,106.992770375724,"Jalan Jati Indah 5, Bekasi Utara, Jawa Barat, 17124, IDN","Harapan Jaya","Bekasi Utara","Kota Bekasi","Kota Bekasi","Jawa Barat","17124"
245,106.992269382231,-6.21398288078707,-6.21398288078707,106.992269382231,"Jalan Swadaya 3, Bekasi Utara, Jawa Barat, 17124, IDN","Harapan Jaya","Bekasi Utara","Kota Bekasi","Kota Bekasi","Jawa Barat","17124"
246,106.999109539492,-6.20992118926239,-6.20992118926239,106.999109539492,"Komplek Pesona Anggrek, Bekasi Utara, Jawa Barat, 17124, IDN","Harapan Jaya","Bekasi Utara","Kota Bekasi","Kota Bekasi","Jawa Barat","17124"
302,106.988430751564,-6.2080769770625,-6.2080769770625,106.988430751564,"Jalan Cempaka 1 269, Bekasi Utara, Jawa Barat, 17124, IDN","Harapan Jaya","Bekasi Utara","Kota Bekasi","Kota Bekasi","Jawa Barat","17124"
341,106.985735801176,-6.20916458846282,-6.20916458846282,106.985735801176,"Anathemic Empire Indonesia, Jalan Krakatau 3 15, Bekasi Utara, Jawa Barat, 17124, IDN","Harapan Jaya","Bekasi Utara","Kota Bekasi","Kota Bekasi","Jawa Barat","17124"
370,106.984661542307,-6.19891365115258,-6.19891365115258,106.984661542307,"Jalan PLN, Bekasi Utara, Jawa Barat, 17124, IDN","Harapan Jaya","Bekasi Utara","Kota Bekasi","Kota Bekasi","Jawa Barat","17124"
387,106.991151711744,-6.21457450614372,-6.21457450614372,106.991151711744,"Jalan Kinabalu 3 341, Bekasi Utara, Jawa Barat, 17124, IDN","Harapan Jaya","Bekasi Utara","Kota Bekasi","Kota Bekasi","Jawa Barat","17124"
417,106.980111051699,-6.20477214496097,-6.20477214496097,106.980111051699,"Jalan Irigasi Harapan Jaya, Bekasi Utara, Jawa Barat, 17124, IDN","Harapan Jaya","Bekasi Utara","Kota Bekasi","Kota Bekasi","Jawa Barat","17124"
431,106.991925483354,-6.21059241557913,-6.21059241557913,106.991925483354,"Jalan Macan 1C, Bekasi Utara, Jawa Barat, 17124, IDN","Harapan Jaya","Bekasi Utara","Kota Bekasi","Kota Bekasi","Jawa Barat","17124"
514,106.998715552456,-6.20738540601374,-6.20738540601374,106.998715552456,"Jalan Pesona Anggrek Blok C10, Bekasi Utara, Jawa Barat, 17124, IDN","Harapan Jaya","Bekasi Utara","Kota Bekasi","Kota Bekasi","Jawa Barat","17124"
654,106.991077749555,-6.2161400288157,-6.2161400288157,106.991077749555,"Premier Sport Village, Jalan Gunung Tangkuban Perahu 24, Bekasi Utara, Jawa Barat, 17124, IDN","Harapan Jaya","Bekasi Utara","Kota Bekasi","Kota Bekasi","Jawa Barat","17124"
670,106.986196282998,-6.20486735455724,-6.20486735455724,106.986196282998,"Jalan Jati Mulya 2 3, Bekasi Utara, Jawa Barat, 17124, IDN","Harapan Jaya","Bekasi Utara","Kota Bekasi","Kota Bekasi","Jawa Barat","17124"
733,106.991643161786,-6.20394806362797,-6.20394806362797,106.991643161786,"Ayam Potong Karkas, Jalan Gelatik 20A, Bekasi Utara, Jawa Barat, 17124, IDN","Harapan Jaya","Bekasi Utara","Kota Bekasi","Kota Bekasi","Jawa Barat","17124"
783,107.001214455257,-6.20152278023152,-6.20152278023152,107.001214455257,"Jalan Kaliabang Raya, Bekasi Utara, Jawa Barat, 17124, IDN","Harapan Jaya","Bekasi Utara","Kota Bekasi","Kota Bekasi","Jawa Barat","17124"
784,106.989706315571,-6.2052324855972,-6.2052324855972,106.989706315571,"Jalan Klengkeng 18B, Bekasi Utara, Jawa Barat, 17124, IDN","Harapan Jaya","Bekasi Utara","Kota Bekasi","Kota Bekasi","Jawa Barat","17124"
785,106.981346408942,-6.20777141514509,-6.20777141514509,106.981346408942,"Jalan Irigasi Harapan Jaya, Bekasi Utara, Jawa Barat, 17124, IDN","Harapan Jaya","Bekasi Utara","Kota Bekasi","Kota Bekasi","Jawa Barat","17124"
69,106.988666515403,-6.23107663817503,-6.23107663817503,106.988666515403,"Jalan Jenderal Sudirman, Medan Satria, Jawa Barat, 17143, IDN","Harapan Mulya","Medan Satria","Kota Bekasi","Kota Bekasi","Jawa Barat","17143"
232,106.984733237773,-6.22487318731056,-6.22487318731056,106.984733237773,"Jalan Wisnu Brata 19, Medan Satria, Jawa Barat, 17143, IDN","Harapan Mulya","Medan Satria","Kota Bekasi","Kota Bekasi","Jawa Barat","17143"
669,106.996539881844,-6.23111024788791,-6.23111024788791,106.996539881844,"Kedai Masashimura, Jalan Pangeran Jayakarta, Medan Satria, Jawa Barat, 17143, IDN","Harapan Mulya","Medan Satria","Kota Bekasi","Kota Bekasi","Jawa Barat","17143"
671,106.994610277767,-6.2332523603855,-6.2332523603855,106.994610277767,"Jalan Insinyur Haji Juanda, Medan Satria, Jawa Barat, 17143, IDN","Harapan Mulya","Medan Satria","Kota Bekasi","Kota Bekasi","Jawa Barat","17143"
701,106.990727626411,-6.22705641747087,-6.22705641747087,106.990727626411,"Ponpes Daarul Futuh, Jalan Bulevar Barat 12, Medan Satria, Jawa Barat, 17143, IDN","Harapan Mulya","Medan Satria","Kota Bekasi","Kota Bekasi","Jawa Barat","17143"
765,106.994695673913,-6.231859292746,-6.231859292746,106.994695673913,"Jalan Bulevar Ahmad Yani, Medan Satria, Jawa Barat, 17143, IDN","Harapan Mulya","Medan Satria","Kota Bekasi","Kota Bekasi","Jawa Barat","17143"
789,106.989097894257,-6.22844813716958,-6.22844813716958,106.989097894257,"Vip. Stationery, Jalan Garuda 3, Medan Satria, Jawa Barat, 17143, IDN","Harapan Mulya","Medan Satria","Kota Bekasi","Kota Bekasi","Jawa Barat","17143"
15,106.959654814633,-6.27832660063175,-6.27832660063175,106.959654814633,"Penampungan Limbah Rsc, Jalan Tol Lingkar Luar, Bekasi Selatan, Jawa Barat, 17146, IDN","Jaka Mulya","Bekasi Selatan","Kota Bekasi","Kota Bekasi","Jawa Barat","17146"
165,106.958159523076,-6.26118856834485,-6.26118856834485,106.958159523076,"Jalan Tol Lingkar Luar, Bekasi Selatan, Jawa Barat, 17146, IDN","Jaka Mulya","Bekasi Selatan","Kota Bekasi","Kota Bekasi","Jawa Barat","17146"
182,106.962256520994,-6.26116365881714,-6.26116365881714,106.962256520994,"Jalan Musi 1 566, Bekasi Selatan, Jawa Barat, 17146, IDN","Jaka Mulya","Bekasi Selatan","Kota Bekasi","Kota Bekasi","Jawa Barat","17146"
376,106.965645786489,-6.26326266933026,-6.26326266933026,106.965645786489,"Jalan Palem 3 911, Bekasi Selatan, Jawa Barat, 17146, IDN","Jaka Mulya","Bekasi Selatan","Kota Bekasi","Kota Bekasi","Jawa Barat","17146"
531,106.965788255081,-6.26244561979129,-6.26244561979129,106.965788255081,"Jalan Palem 2 877, Bekasi Selatan, Jawa Barat, 17146, IDN","Jaka Mulya","Bekasi Selatan","Kota Bekasi","Kota Bekasi","Jawa Barat","17146"
540,106.961724401871,-6.25612627299875,-6.25612627299875,106.961724401871,"Jalan Cikunir Raya, Bekasi Selatan, Jawa Barat, 17146, IDN","Jaka Mulya","Bekasi Selatan","Kota Bekasi","Kota Bekasi","Jawa Barat","17146"
585,106.964273962176,-6.26804619034367,-6.26804619034367,106.964273962176,"Lestari Laundry, Jalan Haji Dalih, Bekasi Selatan, Jawa Barat, 17146, IDN","Jaka Mulya","Bekasi Selatan","Kota Bekasi","Kota Bekasi","Jawa Barat","17146"
666,106.963720672936,-6.25722143250869,-6.25722143250869,106.963720672936,"Jalan Merpati Raja, Bekasi Selatan, Jawa Barat, 17146, IDN","Jaka Mulya","Bekasi Selatan","Kota Bekasi","Kota Bekasi","Jawa Barat","17146"
716,106.966030466514,-6.27242566395637,-6.27242566395637,106.966030466514,"Relung Kopi, Jalan Nusantara 9, Bekasi Selatan, Jawa Barat, 17146, IDN","Jaka Mulya","Bekasi Selatan","Kota Bekasi","Kota Bekasi","Jawa Barat","17146"
5,106.968709473979,-6.23682696315899,-6.23682696315899,106.968709473979,"Jalan Garuda 2, Bekasi Barat, Jawa Barat, 17145, IDN","Jaka Sampurna","Bekasi Barat","Kota Bekasi","Kota Bekasi","Jawa Barat","17145"
148,106.974252096403,-6.2437694443601,-6.2437694443601,106.974252096403,"Jalan Cendana 4, Bekasi Barat, Jawa Barat, 17145, IDN","Jaka Sampurna","Bekasi Barat","Kota Bekasi","Kota Bekasi","Jawa Barat","17145"
150,106.957009171844,-6.24466287865979,-6.24466287865979,106.957009171844,"17145, Bekasi Barat, Jawa Barat, IDN","Jaka Sampurna","Bekasi Barat","Kota Bekasi","Kota Bekasi","Jawa Barat","17145"
175,106.957970260221,-6.24526002329732,-6.24526002329732,106.957970260221,"Uyun Hause, Jalan Swadaya Raya, Bekasi Barat, Jawa Barat, 17145, IDN","Jaka Sampurna","Bekasi Barat","Kota Bekasi","Kota Bekasi","Jawa Barat","17145"
216,106.96515974466,-6.24723656050816,-6.24723656050816,106.96515974466,"Senarai Cave, Jalan Patriot, Bekasi Barat, Jawa Barat, 17145, IDN","Jaka Sampurna","Bekasi Barat","Kota Bekasi","Kota Bekasi","Jawa Barat","17145"
312,106.965271027841,-6.24162677866476,-6.24162677866476,106.965271027841,"Jalan Nurul Iman 1, Bekasi Barat, Jawa Barat, 17145, IDN","Jaka Sampurna","Bekasi Barat","Kota Bekasi","Kota Bekasi","Jawa Barat","17145"
453,106.963247853678,-6.24560855354023,-6.24560855354023,106.963247853678,"Ghaida Fathan, Jalan Al Falaah Kampung Dua, Bekasi Barat, Jawa Barat, 17145, IDN","Jaka Sampurna","Bekasi Barat","Kota Bekasi","Kota Bekasi","Jawa Barat","17145"
703,106.969953826287,-6.24767686468366,-6.24767686468366,106.969953826287,"smart Hafiz Murah Di Bekasi, Jalan Cempaka Raya 5, Bekasi Barat, Jawa Barat, 17145, IDN","Jaka Sampurna","Bekasi Barat","Kota Bekasi","Kota Bekasi","Jawa Barat","17145"
82,106.976749205132,-6.27600476286747,-6.27600476286747,106.976749205132,"Kebun, Jalan Kencana 36A, Bekasi Selatan, Jawa Barat, 17147, IDN","Jaka Setia","Bekasi Selatan","Kota Bekasi","Kota Bekasi","Jawa Barat","17147"
88,106.975071225333,-6.27225698618734,-6.27225698618734,106.975071225333,"Jalan Ruko Rose Garden B, Bekasi Selatan, Jawa Barat, 17147, IDN","Jaka Setia","Bekasi Selatan","Kota Bekasi","Kota Bekasi","Jawa Barat","17147"
152,106.982935847294,-6.27730962969221,-6.27730962969221,106.982935847294,"Jalan Kutilang, Bekasi Selatan, Jawa Barat, 17147, IDN","Jaka Setia","Bekasi Selatan","Kota Bekasi","Kota Bekasi","Jawa Barat","17147"
166,106.973679070759,-6.25187343971572,-6.25187343971572,106.973679070759,"Tanitamakeupartist, Jalan Pondok Jingga Mas 8 17, Bekasi Selatan, Jawa Barat, 17147, IDN","Jaka Setia","Bekasi Selatan","Kota Bekasi","Kota Bekasi","Jawa Barat","17147"
204,106.976592093627,-6.27546647106595,-6.27546647106595,106.976592093627,"Tb.Berkah Jaya 88, Jalan Jakasetia, Bekasi Selatan, Jawa Barat, 17147, IDN","Jaka Setia","Bekasi Selatan","Kota Bekasi","Kota Bekasi","Jawa Barat","17147"
260,106.97175189201,-6.25964185794984,-6.25964185794984,106.97175189201,"Barber Room, Jalan Taman Aster 94, Bekasi Selatan, Jawa Barat, 17147, IDN","Jaka Setia","Bekasi Selatan","Kota Bekasi","Kota Bekasi","Jawa Barat","17147"
399,106.975482243181,-6.27870346343849,-6.27870346343849,106.975482243181,"Jalan Jakasetia, Bekasi Selatan, Jawa Barat, 17147, IDN","Jaka Setia","Bekasi Selatan","Kota Bekasi","Kota Bekasi","Jawa Barat","17147"
419,106.970503929598,-6.25213258456788,-6.25213258456788,106.970503929598,"Jalan Arjuna 4 124, Bekasi Selatan, Jawa Barat, 17147, IDN","Jaka Setia","Bekasi Selatan","Kota Bekasi","Kota Bekasi","Jawa Barat","17147"
445,106.966466017842,-6.25673037387193,-6.25673037387193,106.966466017842,"Dentistory Galaxy, Jalan Matahari 2, Bekasi Selatan, Jawa Barat, 17147, IDN","Jaka Setia","Bekasi Selatan","Kota Bekasi","Kota Bekasi","Jawa Barat","17147"
610,106.970637469105,-6.27633606341919,-6.27633606341919,106.970637469105,"Jalan Pengairan, Bekasi Selatan, Jawa Barat, 17147, IDN","Jaka Setia","Bekasi Selatan","Kota Bekasi","Kota Bekasi","Jawa Barat","17147"
700,106.973881723123,-6.27852428622881,-6.27852428622881,106.973881723123,"I Store Outlet Galaxy, Jalan Bulevar Raya Timur, Bekasi Selatan, Jawa Barat, 17147, IDN","Jaka Setia","Bekasi Selatan","Kota Bekasi","Kota Bekasi","Jawa Barat","17147"
730,106.979610308306,-6.2733004295745,-6.2733004295745,106.979610308306,"Gado Gado Bohay, Jalan Cempaka 140, Bekasi Selatan, Jawa Barat, 17147, IDN","Jaka Setia","Bekasi Selatan","Kota Bekasi","Kota Bekasi","Jawa Barat","17147"
17,106.959230451684,-6.31059336443219,-6.31059336443219,106.959230451684,"Jalan Bunga Sakura 22, Jatiasih, Jawa Barat, 17423, IDN","Jatiasih","Jatiasih","Kota Bekasi","Kota Bekasi","Jawa Barat","17423"
26,106.95946410915,-6.30703779602212,-6.30703779602212,106.95946410915,"Warung Marvin, Jalan Vila Jatirasa, Jatiasih, Jawa Barat, 17424, IDN","Jatiasih","Jatiasih","Kota Bekasi","Kota Bekasi","Jawa Barat","17424"
35,106.956728142985,-6.30142240546983,-6.30142240546983,106.956728142985,"Jalan Wibawa Mukti 2, Jatiasih, Jawa Barat, 17423, IDN","Jatiasih","Jatiasih","Kota Bekasi","Kota Bekasi","Jawa Barat","17423"
42,106.96492516831,-6.28627721571961,-6.28627721571961,106.96492516831,"Jalan Subur, Jatiasih, Jawa Barat, 17423, IDN","Jatiasih","Jatiasih","Kota Bekasi","Kota Bekasi","Jawa Barat","17423"
100,106.960573425745,-6.28856665267059,-6.28856665267059,106.960573425745,"Jalan Cikunir, Jatiasih, Jawa Barat, 17423, IDN","Jatiasih","Jatiasih","Kota Bekasi","Kota Bekasi","Jawa Barat","17423"
112,106.958578605381,-6.30182181268898,-6.30182181268898,106.958578605381,"Rumah Aira, Jalan Dukuh 1, Jatiasih, Jawa Barat, 17423, IDN","Jatiasih","Jatiasih","Kota Bekasi","Kota Bekasi","Jawa Barat","17423"
325,106.961485343749,-6.28836462367425,-6.28836462367425,106.961485343749,"Jalan Kresna, Jatiasih, Jawa Barat, 17423, IDN","Jatiasih","Jatiasih","Kota Bekasi","Kota Bekasi","Jawa Barat","17423"
331,106.959417124793,-6.29079534796407,-6.29079534796407,106.959417124793,"Jalan Warung Buah Asih, Jatiasih, Jawa Barat, 17423, IDN","Jatiasih","Jatiasih","Kota Bekasi","Kota Bekasi","Jawa Barat","17423"
398,106.958185323817,-6.29854654278628,-6.29854654278628,106.958185323817,"Jalan Wibawa Mukti 2, Jatiasih, Jawa Barat, 17423, IDN","Jatiasih","Jatiasih","Kota Bekasi","Kota Bekasi","Jawa Barat","17423"
447,106.960049509693,-6.28881067867048,-6.28881067867048,106.960049509693,"Jalan Cikunir, Jatiasih, Jawa Barat, 17423, IDN","Jatiasih","Jatiasih","Kota Bekasi","Kota Bekasi","Jawa Barat","17423"
468,106.957598383598,-6.30628832707105,-6.30628832707105,106.957598383598,"Jalan Vila Jatirasa, Jatiasih, Jawa Barat, 17423, IDN","Jatiasih","Jatiasih","Kota Bekasi","Kota Bekasi","Jawa Barat","17423"
513,106.952422463633,-6.30882397748876,-6.30882397748876,106.952422463633,"17423, Jatiasih, Jawa Barat, IDN","Jatiasih","Jatiasih","Kota Bekasi","Kota Bekasi","Jawa Barat","17423"
683,106.957986241963,-6.29631933892551,-6.29631933892551,106.957986241963,"Jalan Durian 2, Jatiasih, Jawa Barat, 17423, IDN","Jatiasih","Jatiasih","Kota Bekasi","Kota Bekasi","Jawa Barat","17423"
721,106.954428325655,-6.30508335294405,-6.30508335294405,106.954428325655,"Warung Seblak Mpo, Jalan Mesjid Al Ishaq, Jatiasih, Jawa Barat, 17423, IDN","Jatiasih","Jatiasih","Kota Bekasi","Kota Bekasi","Jawa Barat","17423"
36,106.955552082829,-6.26375386562818,-6.26375386562818,106.955552082829,"Jalan Flamboyan, Pondokgede, Jawa Barat, 17412, IDN","Jatibening","Pondokgede","Kota Bekasi","Kota Bekasi","Jawa Barat","17412"
46,106.94994807445,-6.25275711418436,-6.25275711418436,106.94994807445,"Jalan Bougenvil, Pondokgede, Jawa Barat, 17412, IDN","Jatibening","Pondokgede","Kota Bekasi","Kota Bekasi","Jawa Barat","17412"
74,106.951970516884,-6.25137359746907,-6.25137359746907,106.951970516884,"Jalan Bougenvil 9, Pondokgede, Jawa Barat, 17412, IDN","Jatibening","Pondokgede","Kota Bekasi","Kota Bekasi","Jawa Barat","17412"
129,106.944041470986,-6.26060286196946,-6.26060286196946,106.944041470986,"Jalan Kincan Raya 7, Pondokgede, Jawa Barat, 17412, IDN","Jatibening","Pondokgede","Kota Bekasi","Kota Bekasi","Jawa Barat","17412"
211,106.946443984524,-6.26300480248427,-6.26300480248427,106.946443984524,"Bakmi Jawa Miroso, Jalan Caman 58, Pondokgede, Jawa Barat, 17412, IDN","Jatibening","Pondokgede","Kota Bekasi","Kota Bekasi","Jawa Barat","17412"
249,106.952107144497,-6.25095506100726,-6.25095506100726,106.952107144497,"Jalan Aster 1, Pondokgede, Jawa Barat, 17412, IDN","Jatibening","Pondokgede","Kota Bekasi","Kota Bekasi","Jawa Barat","17412"
279,106.952039450757,-6.25659071217681,-6.25659071217681,106.952039450757,"Jalan Tol Jakarta - Cikampek, Pondokgede, Jawa Barat, 17412, IDN","Jatibening","Pondokgede","Kota Bekasi","Kota Bekasi","Jawa Barat","17412"
395,106.950981854267,-6.26503941307226,-6.26503941307226,106.950981854267,"Warung Awwal, Gang Dinah, Pondokgede, Jawa Barat, 17412, IDN","Jatibening","Pondokgede","Kota Bekasi","Kota Bekasi","Jawa Barat","17412"
532,106.954774294928,-6.25323402794741,-6.25323402794741,106.954774294928,"Red Dorz Enak Enak, Jalan Kesehatan 6 102A, Pondokgede, Jawa Barat, 17412, IDN","Jatibening","Pondokgede","Kota Bekasi","Kota Bekasi","Jawa Barat","17412"
542,106.94978063677,-6.2536519401038,-6.2536519401038,106.94978063677,"Perumahan Taman Bougenville, Jalan Bougenvil, Pondokgede, Jawa Barat, 17412, IDN","Jatibening","Pondokgede","Kota Bekasi","Kota Bekasi","Jawa Barat","17412"
605,106.951134509482,-6.25683416479555,-6.25683416479555,106.951134509482,"Jalan Caman, Pondokgede, Jawa Barat, 17412, IDN","Jatibening","Pondokgede","Kota Bekasi","Kota Bekasi","Jawa Barat","17412"
678,106.951141590496,-6.26590571304672,-6.26590571304672,106.951141590496,"Jalan Nuri 2 10, Pondokgede, Jawa Barat, 17412, IDN","Jatibening","Pondokgede","Kota Bekasi","Kota Bekasi","Jawa Barat","17412"
143,106.935398077325,-6.25515042900284,-6.25515042900284,106.935398077325,"Ricebowl Sedap, Jalan Swadaya 1 20, Pondokgede, Jawa Barat, 17412, IDN","Jatibening Baru","Pondokgede","Kota Bekasi","Kota Bekasi","Jawa Barat","17412"
168,106.929538947631,-6.26656313236336,-6.26656313236336,106.929538947631,"Paud Suplir Indah, Jalan Rambutan 58, Pondokgede, Jawa Barat, 17412, IDN","Jatibening Baru","Pondokgede","Kota Bekasi","Kota Bekasi","Jawa Barat","17412"
197,106.943442007338,-6.2599899356015,-6.2599899356015,106.943442007338,"Ajm Tambal Ban Tiptop, Jalan Kincan Raya 11, Pondokgede, Jawa Barat, 17412, IDN","Jatibening Baru","Pondokgede","Kota Bekasi","Kota Bekasi","Jawa Barat","17412"
298,106.935225178693,-6.26892016763604,-6.26892016763604,106.935225178693,"Jalan Bukit Rawi 6, Pondokgede, Jawa Barat, 17412, IDN","Jatibening Baru","Pondokgede","Kota Bekasi","Kota Bekasi","Jawa Barat","17412"
463,106.935617707567,-6.26594772084925,-6.26594772084925,106.935617707567,"Cemilan Mama Mubarok, Jalan Kemangsari 1 13, Pondokgede, Jawa Barat, 17412, IDN","Jatibening Baru","Pondokgede","Kota Bekasi","Kota Bekasi","Jawa Barat","17412"
620,106.935193934827,-6.25859783514376,-6.25859783514376,106.935193934827,"Jatibening Baru, Pondokgede, Jawa Barat, IDN","Jatibening Baru","Pondokgede","Kota Bekasi","Kota Bekasi","Jawa Barat",""
621,106.930260898277,-6.25373061431793,-6.25373061431793,106.930260898277,"Nirbana O Mise, Jalan Rambutan 1 97, Pondokgede, Jawa Barat, 17412, IDN","Jatibening Baru","Pondokgede","Kota Bekasi","Kota Bekasi","Jawa Barat","17412"
639,106.93596223473,-6.25503638304751,-6.25503638304751,106.93596223473,"Jalan Swadaya 3, Pondokgede, Jawa Barat, 17412, IDN","Jatibening Baru","Pondokgede","Kota Bekasi","Kota Bekasi","Jawa Barat","17412"
720,106.94205815408,-6.25742156536922,-6.25742156536922,106.94205815408,"Jalan Tol Jakarta - Cikampek, Pondokgede, Jawa Barat, 17412, IDN","Jatibening Baru","Pondokgede","Kota Bekasi","Kota Bekasi","Jawa Barat","17412"
762,106.940636827424,-6.26293822030202,-6.26293822030202,106.940636827424,"Jatibening Baru, Pondokgede, Jawa Barat, IDN","Jatibening Baru","Pondokgede","Kota Bekasi","Kota Bekasi","Jawa Barat",""
12,106.92652672682,-6.260229235787,-6.260229235787,106.92652672682,"Al-Barkah Islamic Elementary School, Jalan Kemang Raya 18, Pondokgede, Jawa Barat, 17411, IDN","Jaticempaka","Pondokgede","Kota Bekasi","Kota Bekasi","Jawa Barat","17411"
84,106.90805350592,-6.26667419697133,-6.26667419697133,106.90805350592,"Jalan Gondangdia Baru 19, Pondokgede, Jawa Barat, 17411, IDN","Jaticempaka","Pondokgede","Kota Bekasi","Kota Bekasi","Jawa Barat","17411"
139,106.918921371293,-6.26170172977428,-6.26170172977428,106.918921371293,"Jalan Jamblang 1 18, Pondokgede, Jawa Barat, 17411, IDN","Jaticempaka","Pondokgede","Kota Bekasi","Kota Bekasi","Jawa Barat","17411"
189,106.928054396056,-6.26675935185184,-6.26675935185184,106.928054396056,"Komplek Essence Park Blok A5 No, Jalan Essence Park 19, Pondokgede, Jawa Barat, 17411, IDN","Jaticempaka","Pondokgede","Kota Bekasi","Kota Bekasi","Jawa Barat","17411"
278,106.909470468264,-6.26206009150795,-6.26206009150795,106.909470468264,"Gadetgrosir.Com, Jalan Cempaka, Pondokgede, Jawa Barat, 17411, IDN","Jaticempaka","Pondokgede","Kota Bekasi","Kota Bekasi","Jawa Barat","17411"
283,106.918968197304,-6.26444622345014,-6.26444622345014,106.918968197304,"Smp Islam Ayman, Jalan Jati Roto 1 49, Pondokgede, Jawa Barat, 17411, IDN","Jaticempaka","Pondokgede","Kota Bekasi","Kota Bekasi","Jawa Barat","17411"
590,106.912417037375,-6.26131530165619,-6.26131530165619,106.912417037375,"Rumah Ibu Nawiyah, Jalan Cempaka Bulak 93, Pondokgede, Jawa Barat, 17411, IDN","Jaticempaka","Pondokgede","Kota Bekasi","Kota Bekasi","Jawa Barat","17411"
616,106.911528762549,-6.25730540108814,-6.25730540108814,106.911528762549,"Jalan Tol Jakarta - Cikampek, Pondokgede, Jawa Barat, 17411, IDN","Jaticempaka","Pondokgede","Kota Bekasi","Kota Bekasi","Jawa Barat","17411"
760,106.907752797176,-6.26486988349463,-6.26486988349463,106.907752797176,"Jalan Unkris, Pondokgede, Jawa Barat, 17411, IDN","Jaticempaka","Pondokgede","Kota Bekasi","Kota Bekasi","Jawa Barat","17411"
794,106.907481920256,-6.26344463826681,-6.26344463826681,106.907481920256,"Unkris, Jalan Unkris 17, Pondokgede, Jawa Barat, 17411, IDN","Jaticempaka","Pondokgede","Kota Bekasi","Kota Bekasi","Jawa Barat","17411"
45,106.941411385731,-6.28500193279517,-6.28500193279517,106.941411385731,"Apotek Teratai Farma, Jalan Jatikramat Indah 2, Jatiasih, Jawa Barat, 17421, IDN","Jatikramat","Jatiasih","Kota Bekasi","Kota Bekasi","Jawa Barat","17421"
120,106.949888067918,-6.27728035685783,-6.27728035685783,106.949888067918,"Jalan Pondok Jati Indah Blok A1, Jatiasih, Jawa Barat, 17421, IDN","Jatikramat","Jatiasih","Kota Bekasi","Kota Bekasi","Jawa Barat","17421"
199,106.939190426557,-6.27154148348811,-6.27154148348811,106.939190426557,"Jalan Dosen IKIP, Jatiasih, Jawa Barat, 17421, IDN","Jatikramat","Jatiasih","Kota Bekasi","Kota Bekasi","Jawa Barat","17421"
214,106.941589030865,-6.27655523602537,-6.27655523602537,106.941589030865,"Jalan Griya Asri Jatibening, Jatiasih, Jawa Barat, 17421, IDN","Jatikramat","Jatiasih","Kota Bekasi","Kota Bekasi","Jawa Barat","17421"
310,106.952573390563,-6.28076513061973,-6.28076513061973,106.952573390563,"Sport Club And Gym Center, Jatiasih, Jawa Barat, 17421, IDN","Jatikramat","Jatiasih","Kota Bekasi","Kota Bekasi","Jawa Barat","17421"
368,106.940624322049,-6.28736234107673,-6.28736234107673,106.940624322049,"Jalan Jatikramat Indah 2 115, Jatiasih, Jawa Barat, 17421, IDN","Jatikramat","Jatiasih","Kota Bekasi","Kota Bekasi","Jawa Barat","17421"
470,106.945934404607,-6.28412189061452,-6.28412189061452,106.945934404607,"Jalan Cempaka 1, Jatiasih, Jawa Barat, 17421, IDN","Jatikramat","Jatiasih","Kota Bekasi","Kota Bekasi","Jawa Barat","17421"
471,106.949768797434,-6.28751361067808,-6.28751361067808,106.949768797434,"Jalan Raya Jati Kramat 86, Jatiasih, Jawa Barat, 17421, IDN","Jatikramat","Jatiasih","Kota Bekasi","Kota Bekasi","Jawa Barat","17421"
539,106.940551431149,-6.2717576404524,-6.2717576404524,106.940551431149,"Komplek Dosen IKIP 91, Jatiasih, Jawa Barat, 17421, IDN","Jatikramat","Jatiasih","Kota Bekasi","Kota Bekasi","Jawa Barat","17421"
541,106.941847926477,-6.27558964022986,-6.27558964022986,106.941847926477,"Kusen Alumunium Bekasi, Jalan Haji Anwar, Jatiasih, Jawa Barat, 17421, IDN","Jatikramat","Jatiasih","Kota Bekasi","Kota Bekasi","Jawa Barat","17421"
630,106.953734569816,-6.27855049670622,-6.27855049670622,106.953734569816,"Jalan Srikaya 4, Jatiasih, Jawa Barat, 17421, IDN","Jatikramat","Jatiasih","Kota Bekasi","Kota Bekasi","Jawa Barat","17421"
187,106.953606018901,-6.32426075861899,-6.32426075861899,106.953606018901,"17425, Jatiasih, Jawa Barat, IDN","Jatiluhur","Jatiasih","Kota Bekasi","Kota Bekasi","Jawa Barat","17425"
217,106.950758128513,-6.32516194265533,-6.32516194265533,106.950758128513,"Warung Desi, Jatiasih, Jawa Barat, IDN","Jatiluhur","Jatiasih","Kota Bekasi","Kota Bekasi","Jawa Barat",""
272,106.949479670821,-6.32284719575172,-6.32284719575172,106.949479670821,"Jalan Garuda, Jatiasih, Jawa Barat, 17425, IDN","Jatiluhur","Jatiasih","Kota Bekasi","Kota Bekasi","Jawa Barat","17425"
379,106.948080239133,-6.32672065568872,-6.32672065568872,106.948080239133,"Rdjmotor, Jalan Raya Wibawa Mukti, Jatiasih, Jawa Barat, 17425, IDN","Jatiluhur","Jatiasih","Kota Bekasi","Kota Bekasi","Jawa Barat","17425"
383,106.947935312562,-6.31348562842487,-6.31348562842487,106.947935312562,"Perumahan Satwika Permai, Jatiasih, Jawa Barat, 17425, IDN","Jatiluhur","Jatiasih","Kota Bekasi","Kota Bekasi","Jawa Barat","17425"
425,106.959367625615,-6.31545933133394,-6.31545933133394,106.959367625615,"Jalan Raya Parpostel, Jatiasih, Jawa Barat, 17425, IDN","Jatiluhur","Jatiasih","Kota Bekasi","Kota Bekasi","Jawa Barat","17425"
526,106.946854234147,-6.31136227079369,-6.31136227079369,106.946854234147,"Griya Dealova, Jalan Benda, Jatiasih, Jawa Barat, 17425, IDN","Jatiluhur","Jatiasih","Kota Bekasi","Kota Bekasi","Jawa Barat","17425"
633,106.944592270435,-6.30937190370823,-6.30937190370823,106.944592270435,"Jalan Benda, Jatiasih, Jawa Barat, 17425, IDN","Jatiluhur","Jatiasih","Kota Bekasi","Kota Bekasi","Jawa Barat","17425"
54,106.9349397603,-6.28192346528452,-6.28192346528452,106.9349397603,"Jalan Sigma, Pondokgede, Jawa Barat, 17413, IDN","Jatimakmur","Pondokgede","Kota Bekasi","Kota Bekasi","Jawa Barat","17413"
138,106.931058022047,-6.27527356790031,-6.27527356790031,106.931058022047,"Jalan Antara Dalam 1, Pondokgede, Jawa Barat, 17413, IDN","Jatimakmur","Pondokgede","Kota Bekasi","Kota Bekasi","Jawa Barat","17413"
155,106.934315873494,-6.28242039018418,-6.28242039018418,106.934315873494,"Arista, Jalan Sigma, Pondokgede, Jawa Barat, 17413, IDN","Jatimakmur","Pondokgede","Kota Bekasi","Kota Bekasi","Jawa Barat","17413"
388,106.931541736566,-6.27833222728144,-6.27833222728144,106.931541736566,"Jalan Antara 4, Pondokgede, Jawa Barat, 17413, IDN","Jatimakmur","Pondokgede","Kota Bekasi","Kota Bekasi","Jawa Barat","17413"
480,106.921565551238,-6.28002888904283,-6.28002888904283,106.921565551238,"Jalan Belibis, Pondokgede, Jawa Barat, 17413, IDN","Jatimakmur","Pondokgede","Kota Bekasi","Kota Bekasi","Jawa Barat","17413"
487,106.9253222941,-6.27421158455685,-6.27421158455685,106.9253222941,"Jalan Bongas 12, Pondokgede, Jawa Barat, 17413, IDN","Jatimakmur","Pondokgede","Kota Bekasi","Kota Bekasi","Jawa Barat","17413"
738,106.921319471494,-6.28362261284761,-6.28362261284761,106.921319471494,"Almar Collection, Jalan Kenari 175, Pondokgede, Jawa Barat, 17413, IDN","Jatimakmur","Pondokgede","Kota Bekasi","Kota Bekasi","Jawa Barat","17413"
770,106.931874318527,-6.28971646859384,-6.28971646859384,106.931874318527,"Jalan Mawar Merah, Pondokgede, Jawa Barat, 17413, IDN","Jatimakmur","Pondokgede","Kota Bekasi","Kota Bekasi","Jawa Barat","17413"
7,106.950484981091,-6.30405972217162,-6.30405972217162,106.950484981091,"H. Haris Pamahan, Jalan Mesjid Al Ishaq, Jatiasih, Jawa Barat, IDN","Jatimekar","Jatiasih","Kota Bekasi","Kota Bekasi","Jawa Barat",""
154,106.954219936273,-6.29275692596128,-6.29275692596128,106.954219936273,"Jalan Angkasa Puri Raya, Jatiasih, Jawa Barat, 17422, IDN","Jatimekar","Jatiasih","Kota Bekasi","Kota Bekasi","Jawa Barat","17422"
193,106.947942253346,-6.29333286446675,-6.29333286446675,106.947942253346,"17422, Jatiasih, Jawa Barat, IDN","Jatimekar","Jatiasih","Kota Bekasi","Kota Bekasi","Jawa Barat","17422"
319,106.941131315029,-6.2928602408671,-6.2928602408671,106.941131315029,"Toko Yasir Indonesia, Jalan Pendidikan, Jatiasih, Jawa Barat, 17422, IDN","Jatimekar","Jatiasih","Kota Bekasi","Kota Bekasi","Jawa Barat","17422"
422,106.942477966821,-6.30474067254131,-6.30474067254131,106.942477966821,"Jalan Tol Lingkar Luar, Jatiasih, Jawa Barat, 17422, IDN","Jatimekar","Jatiasih","Kota Bekasi","Kota Bekasi","Jawa Barat","17422"
428,106.947880604792,-6.29038961543899,-6.29038961543899,106.947880604792,"Jalan Musholla, Jatiasih, Jawa Barat, 17422, IDN","Jatimekar","Jatiasih","Kota Bekasi","Kota Bekasi","Jawa Barat","17422"
458,106.940896800202,-6.2932141497626,-6.2932141497626,106.940896800202,"Homework, Jalan Kimia, Jatiasih, Jawa Barat, 17422, IDN","Jatimekar","Jatiasih","Kota Bekasi","Kota Bekasi","Jawa Barat","17422"
556,106.941150816544,-6.29148714989716,-6.29148714989716,106.941150816544,"Jalan Haji Mugni 29, Jatiasih, Jawa Barat, 17422, IDN","Jatimekar","Jatiasih","Kota Bekasi","Kota Bekasi","Jawa Barat","17422"
704,106.946857358198,-6.29366014686523,-6.29366014686523,106.946857358198,"17422, Jatiasih, Jawa Barat, IDN","Jatimekar","Jatiasih","Kota Bekasi","Kota Bekasi","Jawa Barat","17422"
711,106.955230004606,-6.29149337870228,-6.29149337870228,106.955230004606,"Jalan Angkasa Puri Raya, Jatiasih, Jawa Barat, 17422, IDN","Jatimekar","Jatiasih","Kota Bekasi","Kota Bekasi","Jawa Barat","17422"
714,106.952357090678,-6.28911496513484,-6.28911496513484,106.952357090678,"Jalan Apel 6 3, Jatiasih, Jawa Barat, 17422, IDN","Jatimekar","Jatiasih","Kota Bekasi","Kota Bekasi","Jawa Barat","17422"
748,106.950884752103,-6.29024829515117,-6.29024829515117,106.950884752103,"Jalan Apel Raya 6, Jatiasih, Jawa Barat, 17422, IDN","Jatimekar","Jatiasih","Kota Bekasi","Kota Bekasi","Jawa Barat","17422"
787,106.95487355979,-6.28820849301246,-6.28820849301246,106.95487355979,"Warung Nasi 'Subur', Jalan Jatimekar, Jatiasih, Jawa Barat, 17422, IDN","Jatimekar","Jatiasih","Kota Bekasi","Kota Bekasi","Jawa Barat","17422"
6,106.928468430312,-6.31110475958961,-6.31110475958961,106.928468430312,"Angka Wijaya Sejahtera, Jalan Alternatif Jorr Tol Jatiwarna, Pondokmelati, Jawa Barat, 17415, IDN","Jatimelati","Pondokmelati","Kota Bekasi","Kota Bekasi","Jawa Barat","17415"
62,106.941273101595,-6.31358112124431,-6.31358112124431,106.941273101595,"Perumahan Villa Ubud 3A, Pondokmelati, Jawa Barat, 17415, IDN","Jatimelati","Pondokmelati","Kota Bekasi","Kota Bekasi","Jawa Barat","17415"
68,106.926122311716,-6.3169442998372,-6.3169442998372,106.926122311716,"Jalan Haji Kunen, Pondokmelati, Jawa Barat, 17415, IDN","Jatimelati","Pondokmelati","Kota Bekasi","Kota Bekasi","Jawa Barat","17415"
128,106.931280685749,-6.31368981149057,-6.31368981149057,106.931280685749,"Koje Vespa Garage, Jalan Yanatera 17 36, Pondokmelati, Jawa Barat, 17415, IDN","Jatimelati","Pondokmelati","Kota Bekasi","Kota Bekasi","Jawa Barat","17415"
314,106.93622333005,-6.31722180737673,-6.31722180737673,106.93622333005,"Activ Furniture, Jalan Tambakan, Pondokmelati, Jawa Barat, 17415, IDN","Jatimelati","Pondokmelati","Kota Bekasi","Kota Bekasi","Jawa Barat","17415"
364,106.939034332438,-6.31832752146079,-6.31832752146079,106.939034332438,"Lapakayu Bekasi, Jalan Villa Tampak Siring 115, Pondokmelati, Jawa Barat, 17415, IDN","Jatimelati","Pondokmelati","Kota Bekasi","Kota Bekasi","Jawa Barat","17415"
517,106.93507998061,-6.3146142501881,-6.3146142501881,106.93507998061,"Elysia Cake, Jalan Pandan Wangi 6 18, Pondokmelati, Jawa Barat, 17415, IDN","Jatimelati","Pondokmelati","Kota Bekasi","Kota Bekasi","Jawa Barat","17415"
543,106.938868812394,-6.31616831917576,-6.31616831917576,106.938868812394,"Risoles Nina Nini, Jalan Villa Kintamani 98, Pondokmelati, Jawa Barat, 17415, IDN","Jatimelati","Pondokmelati","Kota Bekasi","Kota Bekasi","Jawa Barat","17415"
583,106.938353607493,-6.32294667660454,-6.32294667660454,106.938353607493,"Perumahan Villa Ciater 5, Pondokmelati, Jawa Barat, 17415, IDN","Jatimelati","Pondokmelati","Kota Bekasi","Kota Bekasi","Jawa Barat","17415"
624,106.936870878184,-6.31947031307684,-6.31947031307684,106.936870878184,"Makam Jatiwarna, Jalan Jatiwarna Puri Gading 98, Pondokmelati, Jawa Barat, 17415, IDN","Jatimelati","Pondokmelati","Kota Bekasi","Kota Bekasi","Jawa Barat","17415"
23,107.039303759507,-6.26288623592974,-6.26288623592974,107.039303759507,"Jatimulya, Tambun Selatan, Jawa Barat, IDN","Jatimulya","Tambun Selatan","Kota Bekasi","Bekasi","Jawa Barat",""
126,107.016391118866,-6.28612870900185,-6.28612870900185,107.016391118866,"Jalan Harimau 10, Tambun Selatan, Jawa Barat, 17510, IDN","Jatimulya","Tambun Selatan","Kota Bekasi","Bekasi","Jawa Barat","17510"
151,107.020112138319,-6.2816596085911,-6.2816596085911,107.020112138319,"Jalan Panda 2, Tambun Selatan, Jawa Barat, 17510, IDN","Jatimulya","Tambun Selatan","Kota Bekasi","Bekasi","Jawa Barat","17510"
153,107.015758552786,-6.28691706522885,-6.28691706522885,107.015758552786,"Perumahan Pondok Timur Indah Khusus, Tambun Selatan, Jawa Barat, 17510, IDN","Jatimulya","Tambun Selatan","Kota Bekasi","Bekasi","Jawa Barat","17510"
159,107.022799858324,-6.25914852041715,-6.25914852041715,107.022799858324,"Anis Rusmayani, Jalan Tampomas Raya, Tambun Selatan, Jawa Barat, 17510, IDN","Jatimulya","Tambun Selatan","Kota Bekasi","Bekasi","Jawa Barat","17510"
163,107.023510761336,-6.26092504762746,-6.26092504762746,107.023510761336,"Jatimulya, Tambun Selatan, Jawa Barat, IDN","Jatimulya","Tambun Selatan","Kota Bekasi","Bekasi","Jawa Barat",""
178,107.033086459683,-6.26736487415411,-6.26736487415411,107.033086459683,"Warung Imp, Jalan Kyai Haji Noer Ali, Tambun Selatan, Jawa Barat, 17510, IDN","Jatimulya","Tambun Selatan","Kota Bekasi","Bekasi","Jawa Barat","17510"
186,107.017974028562,-6.27477529761297,-6.27477529761297,107.017974028562,"Jalan Mulia, Tambun Selatan, Jawa Barat, 17510, IDN","Jatimulya","Tambun Selatan","Kota Bekasi","Bekasi","Jawa Barat","17510"
227,107.031125258196,-6.25616211930867,-6.25616211930867,107.031125258196,"Jatimulya, Tambun Selatan, Jawa Barat, IDN","Jatimulya","Tambun Selatan","Kota Bekasi","Bekasi","Jawa Barat",""
237,107.042071860874,-6.26270438992219,-6.26270438992219,107.042071860874,"Agen Sembako Bang Pendi, Jalan Karya Logam, Tambun Selatan, Jawa Barat, 17510, IDN","Jatimulya","Tambun Selatan","Kota Bekasi","Bekasi","Jawa Barat","17510"
255,107.026960640172,-6.27771424826597,-6.27771424826597,107.026960640172,"Jalan Sakura 3, Tambun Selatan, Jawa Barat, 17510, IDN","Jatimulya","Tambun Selatan","Kota Bekasi","Bekasi","Jawa Barat","17510"
261,107.037127338563,-6.26420400081142,-6.26420400081142,107.037127338563,"Masjid Nurul Iman, Jalan Pangeran Diponegoro, Tambun Selatan, Jawa Barat, 17510, IDN","Jatimulya","Tambun Selatan","Kota Bekasi","Bekasi","Jawa Barat","17510"
274,107.043442619614,-6.26387214682045,-6.26387214682045,107.043442619614,"Jalan Karya Logam, Tambun Selatan, Jawa Barat, 17510, IDN","Jatimulya","Tambun Selatan","Kota Bekasi","Bekasi","Jawa Barat","17510"
320,107.025911818231,-6.25689118197695,-6.25689118197695,107.025911818231,"Nasi Uduk Mpok Dami, Jalan Dewa Ruci 3, Tambun Selatan, Jawa Barat, 17510, IDN","Jatimulya","Tambun Selatan","Kota Bekasi","Bekasi","Jawa Barat","17510"
326,107.038876624242,-6.26713624250132,-6.26713624250132,107.038876624242,"Jatimulya, Tambun Selatan, Jawa Barat, IDN","Jatimulya","Tambun Selatan","Kota Bekasi","Bekasi","Jawa Barat",""
343,107.031761485925,-6.27256875752001,-6.27256875752001,107.031761485925,"Jatimulya, Tambun Selatan, Jawa Barat, IDN","Jatimulya","Tambun Selatan","Kota Bekasi","Bekasi","Jawa Barat",""
367,107.026185536516,-6.27130181058244,-6.27130181058244,107.026185536516,"Dapur Palembang, Jalan Toyogiri, Tambun Selatan, Jawa Barat, 17510, IDN","Jatimulya","Tambun Selatan","Kota Bekasi","Bekasi","Jawa Barat","17510"
393,107.016716395195,-6.26667984159632,-6.26667984159632,107.016716395195,"Service Hp & Kursus Hp Herra Smartphone, Jalan Raya Jati Mulya, Tambun Selatan, Jawa Barat, 17510, IDN","Jatimulya","Tambun Selatan","Kota Bekasi","Bekasi","Jawa Barat","17510"
421,107.021822676752,-6.27958797177492,-6.27958797177492,107.021822676752,"Jalan Mutiara Gading Timur Boulevard, Tambun Selatan, Jawa Barat, 17510, IDN","Jatimulya","Tambun Selatan","Kota Bekasi","Bekasi","Jawa Barat","17510"
469,107.018228337149,-6.27449747886952,-6.27449747886952,107.018228337149,"Tk Alam Taman Firdaus, Tambun Selatan, Jawa Barat, IDN","Jatimulya","Tambun Selatan","Kota Bekasi","Bekasi","Jawa Barat",""
493,107.043684390273,-6.26257383442639,-6.26257383442639,107.043684390273,"Baso Mas Bejo, Jalan Karya Logam, Tambun Selatan, Jawa Barat, 17510, IDN","Jatimulya","Tambun Selatan","Kota Bekasi","Bekasi","Jawa Barat","17510"
504,107.034963658077,-6.26741048312422,-6.26741048312422,107.034963658077,"Ayam And Lele Kremes Rasafa 21, Jalan Kyai Haji Noer Ali, Tambun Selatan, Jawa Barat, 17510, IDN","Jatimulya","Tambun Selatan","Kota Bekasi","Bekasi","Jawa Barat","17510"
577,107.021143923281,-6.26652072020275,-6.26652072020275,107.021143923281,"Kontrakan Bp. Nalih, Jalan Cempedak 5 158, Tambun Selatan, Jawa Barat, 17510, IDN","Jatimulya","Tambun Selatan","Kota Bekasi","Bekasi","Jawa Barat","17510"
619,107.037529631954,-6.26523110361216,-6.26523110361216,107.037529631954,"Jatimulya, Tambun Selatan, Jawa Barat, IDN","Jatimulya","Tambun Selatan","Kota Bekasi","Bekasi","Jawa Barat",""
627,107.038310556533,-6.25842810683725,-6.25842810683725,107.038310556533,"Jatimulya, Tambun Selatan, Jawa Barat, IDN","Jatimulya","Tambun Selatan","Kota Bekasi","Bekasi","Jawa Barat",""
645,107.022747772694,-6.26745057129538,-6.26745057129538,107.022747772694,"Tk Islam Salman Al Farisi, Perumahan Jati Mulya Jaya, Tambun Selatan, Jawa Barat, 17510, IDN","Jatimulya","Tambun Selatan","Kota Bekasi","Bekasi","Jawa Barat","17510"
661,107.033389035907,-6.25434462696697,-6.25434462696697,107.033389035907,"Jalan Pangeran Diponegoro, Tambun Selatan, Jawa Barat, 17510, IDN","Jatimulya","Tambun Selatan","Kota Bekasi","Bekasi","Jawa Barat","17510"
675,107.035695955695,-6.25682259070083,-6.25682259070083,107.035695955695,"Jatimulya, Tambun Selatan, Jawa Barat, IDN","Jatimulya","Tambun Selatan","Kota Bekasi","Bekasi","Jawa Barat",""
685,107.020457261891,-6.28157430970115,-6.28157430970115,107.020457261891,"Mie Ayam Klonong, Jalan Panda 60, Tambun Selatan, Jawa Barat, 17510, IDN","Jatimulya","Tambun Selatan","Kota Bekasi","Bekasi","Jawa Barat","17510"
744,107.036275956583,-6.25629215838537,-6.25629215838537,107.036275956583,"Jalan Pangeran Diponegoro, Tambun Selatan, Jawa Barat, 17510, IDN","Jatimulya","Tambun Selatan","Kota Bekasi","Bekasi","Jawa Barat","17510"
750,107.035885274326,-6.25664992548494,-6.25664992548494,107.035885274326,"Jalan Pangeran Diponegoro, Tambun Selatan, Jawa Barat, 17510, IDN","Jatimulya","Tambun Selatan","Kota Bekasi","Bekasi","Jawa Barat","17510"
757,107.013460515479,-6.28487162798758,-6.28487162798758,107.013460515479,"Jalan Cipete Raya, Tambun Selatan, Jawa Barat, 17510, IDN","Jatimulya","Tambun Selatan","Kota Bekasi","Bekasi","Jawa Barat","17510"
773,107.018726345011,-6.27500985856298,-6.27500985856298,107.018726345011,"Warung Mama Syifa, Tambun Selatan, Jawa Barat, IDN","Jatimulya","Tambun Selatan","Kota Bekasi","Bekasi","Jawa Barat",""
145,106.925782462684,-6.32563066537249,-6.32563066537249,106.925782462684,"Adam's Corner, Komplek PLN Jatimurni, Pondokmelati, Jawa Barat, 17431, IDN","Jatimurni","Pondokmelati","Kota Bekasi","Kota Bekasi","Jawa Barat","17431"
190,106.927141998619,-6.32402998162573,-6.32402998162573,106.927141998619,"17431, Pondokmelati, Jawa Barat, IDN","Jatimurni","Pondokmelati","Kota Bekasi","Kota Bekasi","Jawa Barat","17431"
203,106.922562591583,-6.32649632779294,-6.32649632779294,106.922562591583,"Jalan Mabes 2, Pondokmelati, Jawa Barat, 17431, IDN","Jatimurni","Pondokmelati","Kota Bekasi","Kota Bekasi","Jawa Barat","17431"
221,106.920554264573,-6.32412274064638,-6.32412274064638,106.920554264573,"Jalan PLN, Pondokmelati, Jawa Barat, 17431, IDN","Jatimurni","Pondokmelati","Kota Bekasi","Kota Bekasi","Jawa Barat","17431"
259,106.921459461954,-6.32178429639229,-6.32178429639229,106.921459461954,"17431, Pondokmelati, Jawa Barat, IDN","Jatimurni","Pondokmelati","Kota Bekasi","Kota Bekasi","Jawa Barat","17431"
29,106.936804262353,-6.29953428356984,-6.29953428356984,106.936804262353,"Irfan And Bima House A18, Jalan Asoka 38, Pondokmelati, Jawa Barat, 17414, IDN","Jatirahayu","Pondokmelati","Kota Bekasi","Kota Bekasi","Jawa Barat","17414"
293,106.913837943828,-6.29129087662078,-6.29129087662078,106.913837943828,"Jalan Kusuma, Pondokmelati, Jawa Barat, 17414, IDN","Jatirahayu","Pondokmelati","Kota Bekasi","Kota Bekasi","Jawa Barat","17414"
329,106.927674324597,-6.29623888263767,-6.29623888263767,106.927674324597,"Ayam Rich Rica, Jalan Mesjid Rawa Bacang, Pondokmelati, Jawa Barat, 17414, IDN","Jatirahayu","Pondokmelati","Kota Bekasi","Kota Bekasi","Jawa Barat","17414"
400,106.922869185486,-6.29032740915647,-6.29032740915647,106.922869185486,"Blok AS, Pondokmelati, Jawa Barat, 17414, IDN","Jatirahayu","Pondokmelati","Kota Bekasi","Kota Bekasi","Jawa Barat","17414"
408,106.938328216007,-6.29467268653006,-6.29467268653006,106.938328216007,"Blkln Kusuma Indah, Jalan Haji Abdul Rohim, Pondokmelati, Jawa Barat, 17414, IDN","Jatirahayu","Pondokmelati","Kota Bekasi","Kota Bekasi","Jawa Barat","17414"
501,106.934430119602,-6.2969070952101,-6.2969070952101,106.934430119602,"Wijaya Motor, Jalan Siliwangi 103, Pondokmelati, Jawa Barat, 17414, IDN","Jatirahayu","Pondokmelati","Kota Bekasi","Kota Bekasi","Jawa Barat","17414"
561,106.914411333285,-6.29053664173003,-6.29053664173003,106.914411333285,"Per. Wisma Kusuma Indah, Pondok Gede., Wisma Kusuma Indah, Pondokmelati, Jawa Barat, 17414, IDN","Jatirahayu","Pondokmelati","Kota Bekasi","Kota Bekasi","Jawa Barat","17414"
682,106.922877698018,-6.29377984582942,-6.29377984582942,106.922877698018,"Angga Tio Rara, Gang Haji Harun, Pondokmelati, Jawa Barat, 17414, IDN","Jatirahayu","Pondokmelati","Kota Bekasi","Kota Bekasi","Jawa Barat","17414"
707,106.924722234722,-6.29386879070446,-6.29386879070446,106.924722234722,"Frozen 52, Blok D1 Poris TVRI 10, Pondokmelati, Jawa Barat, 17414, IDN","Jatirahayu","Pondokmelati","Kota Bekasi","Kota Bekasi","Jawa Barat","17414"
21,106.968327621044,-6.30294954641699,-6.30294954641699,106.968327621044,"17424, Jatiasih, Jawa Barat, IDN","Jatirasa","Jatiasih","Kota Bekasi","Kota Bekasi","Jawa Barat","17424"
56,106.974640721958,-6.28278033039796,-6.28278033039796,106.974640721958,"Parujiwa, Jalan Akasia, Jatiasih, Jawa Barat, 17424, IDN","Jatirasa","Jatiasih","Kota Bekasi","Kota Bekasi","Jawa Barat","17424"
158,106.965315247763,-6.30188191734449,-6.30188191734449,106.965315247763,"Rumah Anak Sulung, Jalan Swatantra 5, Jatiasih, Jawa Barat, 17424, IDN","Jatirasa","Jatiasih","Kota Bekasi","Kota Bekasi","Jawa Barat","17424"
239,106.970929800153,-6.28242655919813,-6.28242655919813,106.970929800153,"Warung Riska, Jalan Rembang 59, Jatiasih, Jawa Barat, 17424, IDN","Jatirasa","Jatiasih","Kota Bekasi","Kota Bekasi","Jawa Barat","17424"
286,106.962421880883,-6.31061750057331,-6.31061750057331,106.962421880883,"Jalan Bunga Sakura Utama 5 17, Jatiasih, Jawa Barat, 17424, IDN","Jatirasa","Jatiasih","Kota Bekasi","Kota Bekasi","Jawa Barat","17424"
623,106.969893217598,-6.28349332907869,-6.28349332907869,106.969893217598,"Jalan Rembang, Jatiasih, Jawa Barat, 17424, IDN","Jatirasa","Jatiasih","Kota Bekasi","Kota Bekasi","Jawa Barat","17424"
636,106.96542383966,-6.2941572663536,-6.2941572663536,106.96542383966,"Pt Bank Central Asia Tbk, Jalan Swatantra Jatiasih, Jatiasih, Jawa Barat, 17423, IDN","Jatirasa","Jatiasih","Kota Bekasi","Kota Bekasi","Jawa Barat","17423"
689,106.969466682844,-6.28953575337438,-6.28953575337438,106.969466682844,"Jalan Bintan 1, Jatiasih, Jawa Barat, 17424, IDN","Jatirasa","Jatiasih","Kota Bekasi","Kota Bekasi","Jawa Barat","17424"
776,106.959754062378,-6.32275405238388,-6.32275405238388,106.959754062378,"Jalan Citra Anggun 1 2, Jatiasih, Jawa Barat, 17426, IDN","Jatisari","Jatiasih","Kota Bekasi","Kota Bekasi","Jawa Barat","17426"
123,106.917834932399,-6.26932787088928,-6.26932787088928,106.917834932399,"Jalan Setia 1N, Pondokgede, Jawa Barat, 17411, IDN","Jatiwaringin","Pondokgede","Kota Bekasi","Kota Bekasi","Jawa Barat","17411"
267,106.92176934071,-6.27418637372716,-6.27418637372716,106.92176934071,"Mechatronics Inc., Jalan Sangata 1 7, Pondokgede, Jawa Barat, 17411, IDN","Jatiwaringin","Pondokgede","Kota Bekasi","Kota Bekasi","Jawa Barat","17411"
273,106.927026832045,-6.27158192985429,-6.27158192985429,106.927026832045,"Jalan Karmila 6, Pondokgede, Jawa Barat, 17411, IDN","Jatiwaringin","Pondokgede","Kota Bekasi","Kota Bekasi","Jawa Barat","17411"
301,106.912699396341,-6.28027401819506,-6.28027401819506,106.912699396341,"Rumah Bang M. Salim, Jalan Nurrusadah 70, Pondokgede, Jawa Barat, 17411, IDN","Jatiwaringin","Pondokgede","Kota Bekasi","Kota Bekasi","Jawa Barat","17411"
335,106.920305279035,-6.27016641813285,-6.27016641813285,106.920305279035,"Aldi, Jalan Delta Intan 26A, Pondokgede, Jawa Barat, 17411, IDN","Jatiwaringin","Pondokgede","Kota Bekasi","Kota Bekasi","Jawa Barat","17411"
336,106.913631589768,-6.27249400668337,-6.27249400668337,106.913631589768,"Jalan Abdul Halim 40F, Pondokgede, Jawa Barat, 17411, IDN","Jatiwaringin","Pondokgede","Kota Bekasi","Kota Bekasi","Jawa Barat","17411"
440,106.920573691161,-6.27027916810671,-6.27027916810671,106.920573691161,"Al Laundry Jatiwaringin, Jalan Delta Intan 23, Pondokgede, Jawa Barat, 17411, IDN","Jatiwaringin","Pondokgede","Kota Bekasi","Kota Bekasi","Jawa Barat","17411"
680,106.91547982678,-6.28285677636442,-6.28285677636442,106.91547982678,"Al, Jalan Penghulu 3 36, Pondokgede, Jawa Barat, 17411, IDN","Jatiwaringin","Pondokgede","Kota Bekasi","Kota Bekasi","Jawa Barat","17411"
19,106.930215038851,-6.30473006480033,-6.30473006480033,106.930215038851,"Rumah Kelud 1, Jalan Kelud 1, Pondokmelati, Jawa Barat, 17415, IDN","Jatiwarna","Pondokmelati","Kota Bekasi","Kota Bekasi","Jawa Barat","17415"
80,106.926211122802,-6.3033889299878,-6.3033889299878,106.926211122802,"Jalan Permai 3, Pondokmelati, Jawa Barat, 17415, IDN","Jatiwarna","Pondokmelati","Kota Bekasi","Kota Bekasi","Jawa Barat","17415"
110,106.935223232184,-6.30249127263021,-6.30249127263021,106.935223232184,"Kontrakan Murah, Jalan Kecapi 2, Pondokmelati, Jawa Barat, 17415, IDN","Jatiwarna","Pondokmelati","Kota Bekasi","Kota Bekasi","Jawa Barat","17415"
181,106.928631536267,-6.30935971193239,-6.30935971193239,106.928631536267,"Pawon Iteung, Jalan Masjid 18, Pondokmelati, Jawa Barat, 17415, IDN","Jatiwarna","Pondokmelati","Kota Bekasi","Kota Bekasi","Jawa Barat","17415"
420,106.922381100293,-6.30329744821428,-6.30329744821428,106.922381100293,"Jalan Bunga Matahari 3 22, Pondokmelati, Jawa Barat, 17415, IDN","Jatiwarna","Pondokmelati","Kota Bekasi","Kota Bekasi","Jawa Barat","17415"
592,106.92122628728,-6.30195407725323,-6.30195407725323,106.92122628728,"Jalan Bunga Matahari 6 2, Pondokmelati, Jawa Barat, 17415, IDN","Jatiwarna","Pondokmelati","Kota Bekasi","Kota Bekasi","Jawa Barat","17415"
660,106.925508232347,-6.30402098035418,-6.30402098035418,106.925508232347,"Warung Bapa Disan, Jalan Melati Raya, Pondokmelati, Jawa Barat, 17415, IDN","Jatiwarna","Pondokmelati","Kota Bekasi","Kota Bekasi","Jawa Barat","17415"
719,106.93022110574,-6.30138408063805,-6.30138408063805,106.93022110574,"Jalan Pasar Kecapi, Pondokmelati, Jawa Barat, 17415, IDN","Jatiwarna","Pondokmelati","Kota Bekasi","Kota Bekasi","Jawa Barat","17415"
28,106.98085726638,-6.22306972733304,-6.22306972733304,106.98085726638,"Jalan Kalibaru Timur, Medan Satria, Jawa Barat, 17133, IDN","Kali Baru","Medan Satria","Kota Bekasi","Kota Bekasi","Jawa Barat","17133"
122,106.976815214769,-6.22219954607296,-6.22219954607296,106.976815214769,"Jalan Melati Raya, Medan Satria, Jawa Barat, 17133, IDN","Kali Baru","Medan Satria","Kota Bekasi","Kota Bekasi","Jawa Barat","17133"
218,106.979588107852,-6.21819529092345,-6.21819529092345,106.979588107852,"Warung Abah Jl.Kp Rawa Bambu, Danau Bisprak3, Medan Satria, Jawa Barat, IDN","Kali Baru","Medan Satria","Kota Bekasi","Kota Bekasi","Jawa Barat",""
277,106.981874490427,-6.22227505998023,-6.22227505998023,106.981874490427,"Warung Ilham, Jalan Rawa Bambu Bulak, Medan Satria, Jawa Barat, 17133, IDN","Kali Baru","Medan Satria","Kota Bekasi","Kota Bekasi","Jawa Barat","17133"
299,106.982396250337,-6.22148184003617,-6.22148184003617,106.982396250337,"Jalan Rawa Bambu Bulak, Medan Satria, Jawa Barat, 17133, IDN","Kali Baru","Medan Satria","Kota Bekasi","Kota Bekasi","Jawa Barat","17133"
317,106.978493453162,-6.21624005420638,-6.21624005420638,106.978493453162,"Kali Baru, Medan Satria, Jawa Barat, IDN","Kali Baru","Medan Satria","Kota Bekasi","Kota Bekasi","Jawa Barat",""
568,106.977468561671,-6.22268642519277,-6.22268642519277,106.977468561671,"Pt Multi Tehnik Bekasi, Jalan Melati Raya, Medan Satria, Jawa Barat, 17133, IDN","Kali Baru","Medan Satria","Kota Bekasi","Kota Bekasi","Jawa Barat","17133"
764,106.979427829923,-6.22384748537598,-6.22384748537598,106.979427829923,"Service Drone Bekasi, Jalan Melati Raya, Medan Satria, Jawa Barat, 17133, IDN","Kali Baru","Medan Satria","Kota Bekasi","Kota Bekasi","Jawa Barat","17133"
57,107.006617670195,-6.19546235199551,-6.19546235199551,107.006617670195,"Jalan Permata Perdana 1, Bekasi Utara, Jawa Barat, 17125, IDN","Kaliabang Tengah","Bekasi Utara","Kota Bekasi","Kota Bekasi","Jawa Barat","17125"
130,107.012789060793,-6.20199257777526,-6.20199257777526,107.012789060793,"Gang Swadaya 1, Bekasi Utara, Jawa Barat, 17125, IDN","Kaliabang Tengah","Bekasi Utara","Kota Bekasi","Kota Bekasi","Jawa Barat","17125"
134,106.997378095446,-6.19768372647553,-6.19768372647553,106.997378095446,"Jalan Kaliabang Tengah, Bekasi Utara, Jawa Barat, 17125, IDN","Kaliabang Tengah","Bekasi Utara","Kota Bekasi","Kota Bekasi","Jawa Barat","17125"
210,106.995735376256,-6.18678016504563,-6.18678016504563,106.995735376256,"Jalan Taman Aster 5 2, Bekasi Utara, Jawa Barat, 17125, IDN","Kaliabang Tengah","Bekasi Utara","Kota Bekasi","Kota Bekasi","Jawa Barat","17125"
212,107.001864482331,-6.19538503182895,-6.19538503182895,107.001864482331,"Enjoyourself-Id, Jalan Bunga Raya, Bekasi Utara, Jawa Barat, 17125, IDN","Kaliabang Tengah","Bekasi Utara","Kota Bekasi","Kota Bekasi","Jawa Barat","17125"
226,107.003878709098,-6.20120405180066,-6.20120405180066,107.003878709098,"Silvano Catering, Jalan Jamrud 3 17, Bekasi Utara, Jawa Barat, 17125, IDN","Kaliabang Tengah","Bekasi Utara","Kota Bekasi","Kota Bekasi","Jawa Barat","17125"
270,107.001244555266,-6.18235581403355,-6.18235581403355,107.001244555266,"Geprek21, Jalan Kenanga, Bekasi Utara, Jawa Barat, 17125, IDN","Kaliabang Tengah","Bekasi Utara","Kota Bekasi","Kota Bekasi","Jawa Barat","17125"
275,107.009177605021,-6.19679675855858,-6.19679675855858,107.009177605021,"Jalan Palem 3, Bekasi Utara, Jawa Barat, 17125, IDN","Kaliabang Tengah","Bekasi Utara","Kota Bekasi","Kota Bekasi","Jawa Barat","17125"
291,107.003245349862,-6.18201571407023,-6.18201571407023,107.003245349862,"Jalan Pondok Ungu Permai 24, Pondok Ungu Permai, Bekasi Utara, Jawa Barat, 17125, IDN","Kaliabang Tengah","Bekasi Utara","Kota Bekasi","Kota Bekasi","Jawa Barat","17125"
384,106.999444085111,-6.18070794421664,-6.18070794421664,106.999444085111,"Jalan Kyai Haji Mahedir, Bekasi Utara, Jawa Barat, 17125, IDN","Kaliabang Tengah","Bekasi Utara","Kota Bekasi","Kota Bekasi","Jawa Barat","17125"
505,106.999134531381,-6.1808412418261,-6.1808412418261,106.999134531381,"Altschmerz.Co, Jalan Kyai Haji Mahedir, Bekasi Utara, Jawa Barat, 17125, IDN","Kaliabang Tengah","Bekasi Utara","Kota Bekasi","Kota Bekasi","Jawa Barat","17125"
545,107.004981968718,-6.20416869257879,-6.20416869257879,107.004981968718,"Jalan Kaliabang Tengah, Bekasi Utara, Jawa Barat, 17125, IDN","Kaliabang Tengah","Bekasi Utara","Kota Bekasi","Kota Bekasi","Jawa Barat","17125"
601,107.002385779408,-6.18089696954682,-6.18089696954682,107.002385779408,"Kerajaan Pup, Pondok Ungu Permai 37, Pondok Ungu Permai, Bekasi Utara, Jawa Barat, 17125, IDN","Kaliabang Tengah","Bekasi Utara","Kota Bekasi","Kota Bekasi","Jawa Barat","17125"
604,107.006796223007,-6.20094388118312,-6.20094388118312,107.006796223007,"Mustika Kosmetik 17, Jalan Bumi Alinda Kencana Permai 17, Bekasi Utara, Jawa Barat, 17125, IDN","Kaliabang Tengah","Bekasi Utara","Kota Bekasi","Kota Bekasi","Jawa Barat","17125"
643,107.006296413645,-6.2038278977889,-6.2038278977889,107.006296413645,"17125, Bekasi Utara, Jawa Barat, IDN","Kaliabang Tengah","Bekasi Utara","Kota Bekasi","Kota Bekasi","Jawa Barat","17125"
695,107.003491251429,-6.18357028374429,-6.18357028374429,107.003491251429,"Pondok Ungu Permai Blok Oo5 No. 8, Jalan Pondok Ungu Permai 13, Bekasi Utara, Jawa Barat, 17125, IDN","Kaliabang Tengah","Bekasi Utara","Kota Bekasi","Kota Bekasi","Jawa Barat","17125"
717,106.999978822594,-6.18411523637925,-6.18411523637925,106.999978822594,"Amanah Farm, Jalan Kyai Haji Mahedir, Bekasi Utara, Jawa Barat, 17125, IDN","Kaliabang Tengah","Bekasi Utara","Kota Bekasi","Kota Bekasi","Jawa Barat","17125"
38,107.030806293689,-6.22594725630312,-6.22594725630312,107.030806293689,"Kimia Farma, Jalan Karang Satria, Tambun Utara, Jawa Barat, 17510, IDN","Karangsatria","Tambun Utara","Kota Bekasi","Bekasi","Jawa Barat","17510"
77,107.038753353842,-6.21076220888656,-6.21076220888656,107.038753353842,"Villa Mutiara Gading 2 Blok V2 35, Tambun Utara, Jawa Barat, 17510, IDN","Karangsatria","Tambun Utara","Kota Bekasi","Bekasi","Jawa Barat","17510"
91,107.03410765697,-6.22499760574085,-6.22499760574085,107.03410765697,"Karangsatria, Tambun Utara, Jawa Barat, IDN","Karangsatria","Tambun Utara","Kota Bekasi","Bekasi","Jawa Barat",""
147,107.042729220062,-6.222720825198,-6.222720825198,107.042729220062,"Gado Gado Maya, Jalan Alamanda Ayu 3 3, Tambun Utara, Jawa Barat, 17510, IDN","Karangsatria","Tambun Utara","Kota Bekasi","Bekasi","Jawa Barat","17510"
149,107.03295532464,-6.20940880646379,-6.20940880646379,107.03295532464,"Jalan Anggrek 4C 19, Tambun Utara, Jawa Barat, 17510, IDN","Karangsatria","Tambun Utara","Kota Bekasi","Bekasi","Jawa Barat","17510"
167,107.043182388113,-6.22748353757163,-6.22748353757163,107.043182388113,"Karangsatria, Tambun Utara, Jawa Barat, IDN","Karangsatria","Tambun Utara","Kota Bekasi","Bekasi","Jawa Barat",""
188,107.035548908153,-6.21756777271429,-6.21756777271429,107.035548908153,"Baslokumiku Pusat, Jalan Lingkar Bumi Anggrek 35, Tambun Utara, Jawa Barat, 17510, IDN","Karangsatria","Tambun Utara","Kota Bekasi","Bekasi","Jawa Barat","17510"
215,107.035800453145,-6.20754559664463,-6.20754559664463,107.035800453145,"Jalan Anggrek 1A, Tambun Utara, Jawa Barat, 17510, IDN","Karangsatria","Tambun Utara","Kota Bekasi","Bekasi","Jawa Barat","17510"
449,107.039021436906,-6.21436030220828,-6.21436030220828,107.039021436906,"Villa Mutiara Gading 2 Blok X5, Tambun Utara, Jawa Barat, 17510, IDN","Karangsatria","Tambun Utara","Kota Bekasi","Bekasi","Jawa Barat","17510"
629,107.041980661051,-6.22843715032563,-6.22843715032563,107.041980661051,"Jalan Cempaka 2, Tambun Utara, Jawa Barat, 17510, IDN","Karangsatria","Tambun Utara","Kota Bekasi","Bekasi","Jawa Barat","17510"
656,107.03802903613,-6.21496192628468,-6.21496192628468,107.03802903613,"Villa Mutiara Gading 2 Blok X12, Tambun Utara, Jawa Barat, 17510, IDN","Karangsatria","Tambun Utara","Kota Bekasi","Bekasi","Jawa Barat","17510"
674,107.041444226706,-6.21937012312218,-6.21937012312218,107.041444226706,"Angkringan Oppa, Bumi Anggrek Blok R 302, Tambun Utara, Jawa Barat, 17510, IDN","Karangsatria","Tambun Utara","Kota Bekasi","Bekasi","Jawa Barat","17510"
735,107.037495293458,-6.21926795401262,-6.21926795401262,107.037495293458,"Bumi Anggrek Blok H, Tambun Utara, Jawa Barat, 17510, IDN","Karangsatria","Tambun Utara","Kota Bekasi","Bekasi","Jawa Barat","17510"
759,107.042447896245,-6.21574950536443,-6.21574950536443,107.042447896245,"Rumah Panda~panda, Bumi Anggrek Blok U 85, Tambun Utara, Jawa Barat, 17510, IDN","Karangsatria","Tambun Utara","Kota Bekasi","Bekasi","Jawa Barat","17510"
305,106.985484091572,-6.23162425170702,-6.23162425170702,106.985484091572,"Kenken Beauty Art, Jalan Utama Raya 60, Bekasi Selatan, Jawa Barat, 17144, IDN","Kayuringin Jaya","Bekasi Selatan","Kota Bekasi","Kota Bekasi","Jawa Barat","17144"
358,106.985187066471,-6.24684260170372,-6.24684260170372,106.985187066471,"Dokter Rs Juwita, Jalan Gabus 84, Bekasi Selatan, Jawa Barat, 17144, IDN","Kayuringin Jaya","Bekasi Selatan","Kota Bekasi","Kota Bekasi","Jawa Barat","17144"
371,106.978970625267,-6.24158949998877,-6.24158949998877,106.978970625267,"Jalan Timah, Bekasi Selatan, Jawa Barat, 17144, IDN","Kayuringin Jaya","Bekasi Selatan","Kota Bekasi","Kota Bekasi","Jawa Barat","17144"
436,106.9840815358,-6.23936826365293,-6.23936826365293,106.9840815358,"Jalan Sadewa 4, Bekasi Selatan, Jawa Barat, 17144, IDN","Kayuringin Jaya","Bekasi Selatan","Kota Bekasi","Kota Bekasi","Jawa Barat","17144"
528,106.98497214601,-6.24247759158648,-6.24247759158648,106.98497214601,"Struggle Betta Fish, Jalan Letnan Arsyad 70, Bekasi Selatan, Jawa Barat, 17144, IDN","Kayuringin Jaya","Bekasi Selatan","Kota Bekasi","Kota Bekasi","Jawa Barat","17144"
791,106.989117838226,-6.23939565087447,-6.23939565087447,106.989117838226,"Jalan Haruman 4, Bekasi Selatan, Jawa Barat, 17144, IDN","Kayuringin Jaya","Bekasi Selatan","Kota Bekasi","Kota Bekasi","Jawa Barat","17144"
795,106.991476159423,-6.24030712116642,-6.24030712116642,106.991476159423,"Jalan Ceremai, Bekasi Selatan, Jawa Barat, 17144, IDN","Kayuringin Jaya","Bekasi Selatan","Kota Bekasi","Kota Bekasi","Jawa Barat","17144"
70,107.036670409585,-6.19130481556316,-6.19130481556316,107.036670409585,"Shell Select, Jalan Danau Tondano 3 14, Babelan, Jawa Barat, 17610, IDN","Kebalen","Babelan","Kota Bekasi","Bekasi","Jawa Barat","17610"
103,107.040532564195,-6.20183374077792,-6.20183374077792,107.040532564195,"Kebalen, Babelan, Jawa Barat, IDN","Kebalen","Babelan","Kota Bekasi","Bekasi","Jawa Barat",""
146,107.038423663401,-6.19204331157439,-6.19204331157439,107.038423663401,"Jalan Perjuangan, Babelan, Jawa Barat, 17610, IDN","Kebalen","Babelan","Kota Bekasi","Bekasi","Jawa Barat","17610"
252,107.038431689556,-6.18343775482922,-6.18343775482922,107.038431689556,"Jalan Perjuangan, Babelan, Jawa Barat, 17610, IDN","Kebalen","Babelan","Kota Bekasi","Bekasi","Jawa Barat","17610"
450,107.039514587491,-6.19912338110039,-6.19912338110039,107.039514587491,"Gang Perintis, Babelan, Jawa Barat, 17610, IDN","Kebalen","Babelan","Kota Bekasi","Bekasi","Jawa Barat","17610"
692,107.031634679798,-6.18627945342909,-6.18627945342909,107.031634679798,"Neta Cake, Jalan Kyai Haji Tajudin, Babelan, Jawa Barat, 17610, IDN","Kebalen","Babelan","Kota Bekasi","Bekasi","Jawa Barat","17610"
712,107.035576281868,-6.18074538677496,-6.18074538677496,107.035576281868,"Jalan Durian 2 10, Babelan, Jawa Barat, 17610, IDN","Kebalen","Babelan","Kota Bekasi","Bekasi","Jawa Barat","17610"
16,106.969543633472,-6.21539095280272,-6.21539095280272,106.969543633472,"Rumah Bagus, Gang Hidayah 3 27A, Bekasi Barat, Jawa Barat, 17133, IDN","Kota Baru","Bekasi Barat","Kota Bekasi","Kota Bekasi","Jawa Barat","17133"
59,106.965803433559,-6.21951656844174,-6.21951656844174,106.965803433559,"Pets Shop Harapan Baru, Jalan Rawa Bebek 42, Bekasi Barat, Jawa Barat, 17133, IDN","Kota Baru","Bekasi Barat","Kota Bekasi","Kota Bekasi","Jawa Barat","17133"
114,106.958064214241,-6.21764565998272,-6.21764565998272,106.958064214241,"Apotik Nila Regency, Jalan Ruko Harapan Baru Regensi 7, Bekasi Barat, Jawa Barat, 17133, IDN","Kota Baru","Bekasi Barat","Kota Bekasi","Kota Bekasi","Jawa Barat","17133"
170,106.960294550476,-6.21389079071684,-6.21389079071684,106.960294550476,"Croffle Store Jakarta Terbaru, Jalan Soka Merah 4 20, Bekasi Barat, Jawa Barat, 17133, IDN","Kota Baru","Bekasi Barat","Kota Bekasi","Kota Bekasi","Jawa Barat","17133"
228,106.965964076851,-6.21334782771687,-6.21334782771687,106.965964076851,"Harapan Baru Bekasi, Jalan Kunyit 3 31, Bekasi Barat, Jawa Barat, 17133, IDN","Kota Baru","Bekasi Barat","Kota Bekasi","Kota Bekasi","Jawa Barat","17133"
377,106.965334470823,-6.21064596601096,-6.21064596601096,106.965334470823,"Tupperware Bekasi, Jalan Jeruk Nipis 2 20, Bekasi Barat, Jawa Barat, 17133, IDN","Kota Baru","Bekasi Barat","Kota Bekasi","Kota Bekasi","Jawa Barat","17133"
472,106.96323238838,-6.21388486949298,-6.21388486949298,106.96323238838,"Warung Azka Ubied, Jalan Jambu Air 16, Bekasi Barat, Jawa Barat, 17133, IDN","Kota Baru","Bekasi Barat","Kota Bekasi","Kota Bekasi","Jawa Barat","17133"
727,106.964315347193,-6.211848325404,-6.211848325404,106.964315347193,"3S.Om Sneakers, Jalan Mentimun 2 9, Bekasi Barat, Jawa Barat, 17133, IDN","Kota Baru","Bekasi Barat","Kota Bekasi","Kota Bekasi","Jawa Barat","17133"
800,106.960687577839,-6.21738989900742,-6.21738989900742,106.960687577839,"Gang Rawa Bebek 1, Bekasi Barat, Jawa Barat, 17133, IDN","Kota Baru","Bekasi Barat","Kota Bekasi","Kota Bekasi","Jawa Barat","17133"
229,106.970282158619,-6.23018499471245,-6.23018499471245,106.970282158619,"Jalan Dahlia, Bekasi Barat, Jawa Barat, 17135, IDN","Kranji","Bekasi Barat","Kota Bekasi","Kota Bekasi","Jawa Barat","17135"
345,106.976741776195,-6.22324344815814,-6.22324344815814,106.976741776195,"Jalan Jenderal Sudirman, Bekasi Barat, Jawa Barat, 17135, IDN","Kranji","Bekasi Barat","Kota Bekasi","Kota Bekasi","Jawa Barat","17135"
797,106.972913044135,-6.22480383893258,-6.22480383893258,106.972913044135,"Perumahan Violet Garden, Jalan I Gusti Ngurah Rai, Bekasi Barat, Jawa Barat, 17135, IDN","Kranji","Bekasi Barat","Kota Bekasi","Kota Bekasi","Jawa Barat","17135"
10,107.042677410659,-6.28544791019743,-6.28544791019743,107.042677410659,"Jalan Celebration Boulevard, Tambun Selatan, Jawa Barat, 17510, IDN","Lambangsari","Tambun Selatan","Kota Bekasi","Bekasi","Jawa Barat","17510"
51,107.039172673748,-6.27807315181188,-6.27807315181188,107.039172673748,"Jalan Bima Duta 16 1, Tambun Selatan, Jawa Barat, 17510, IDN","Lambangsari","Tambun Selatan","Kota Bekasi","Bekasi","Jawa Barat","17510"
117,107.041885270507,-6.30162898991194,-6.30162898991194,107.041885270507,"Lambangsari, Tambun Selatan, Jawa Barat, IDN","Lambangsari","Tambun Selatan","Kota Bekasi","Bekasi","Jawa Barat",""
195,107.041954489004,-6.29808008940813,-6.29808008940813,107.041954489004,"Lambangsari, Tambun Selatan, Jawa Barat, IDN","Lambangsari","Tambun Selatan","Kota Bekasi","Bekasi","Jawa Barat",""
247,107.035377494036,-6.27726699320257,-6.27726699320257,107.035377494036,"Jalan Bima Duta 3, Tambun Selatan, Jawa Barat, 17510, IDN","Lambangsari","Tambun Selatan","Kota Bekasi","Bekasi","Jawa Barat","17510"
264,107.03241286959,-6.27237323527321,-6.27237323527321,107.03241286959,"Lambangsari, Tambun Selatan, Jawa Barat, IDN","Lambangsari","Tambun Selatan","Kota Bekasi","Bekasi","Jawa Barat",""
598,107.040528198785,-6.30246602219275,-6.30246602219275,107.040528198785,"Lambangsari, Tambun Selatan, Jawa Barat, IDN","Lambangsari","Tambun Selatan","Kota Bekasi","Bekasi","Jawa Barat",""
626,107.040230003053,-6.30702755813767,-6.30702755813767,107.040230003053,"Lambangsari, Tambun Selatan, Jawa Barat, IDN","Lambangsari","Tambun Selatan","Kota Bekasi","Bekasi","Jawa Barat",""
681,107.041477415724,-6.30256079503398,-6.30256079503398,107.041477415724,"Lambangsari, Tambun Selatan, Jawa Barat, IDN","Lambangsari","Tambun Selatan","Kota Bekasi","Bekasi","Jawa Barat",""
743,107.037937980412,-6.26732707999056,-6.26732707999056,107.037937980412,"Jalan Kyai Haji Noer Ali, Tambun Selatan, Jawa Barat, 17510, IDN","Lambangsari","Tambun Selatan","Kota Bekasi","Bekasi","Jawa Barat","17510"
50,106.99216004136,-6.25382173592983,-6.25382173592983,106.99216004136,"Jalan Tol Jakarta - Cikampek, Bekasi Selatan, Jawa Barat, 17141, IDN","Marga Jaya","Bekasi Selatan","Kota Bekasi","Kota Bekasi","Jawa Barat","17141"
346,106.992304227934,-6.2546409851147,-6.2546409851147,106.992304227934,"Lapas Dk13, Jalan Jenderal Ahmad Yani, Bekasi Selatan, Jawa Barat, 17141, IDN","Marga Jaya","Bekasi Selatan","Kota Bekasi","Kota Bekasi","Jawa Barat","17141"
354,106.993562390922,-6.23868442388249,-6.23868442388249,106.993562390922,"Jalan Rawa Tembaga 2, Bekasi Selatan, Jawa Barat, 17141, IDN","Marga Jaya","Bekasi Selatan","Kota Bekasi","Kota Bekasi","Jawa Barat","17141"
375,106.994975866726,-6.25202309861253,-6.25202309861253,106.994975866726,"Jalan Kelurahan Margajaya, Bekasi Selatan, Jawa Barat, 17141, IDN","Marga Jaya","Bekasi Selatan","Kota Bekasi","Kota Bekasi","Jawa Barat","17141"
486,106.994739776181,-6.25235017579583,-6.25235017579583,106.994739776181,"Tbm Gemmas Indonesia Pojok Baca Bekasi, Jalan Kelurahan Margajaya, Bekasi Selatan, Jawa Barat, 17141, IDN","Marga Jaya","Bekasi Selatan","Kota Bekasi","Kota Bekasi","Jawa Barat","17141"
665,106.993686032145,-6.24820533424082,-6.24820533424082,106.993686032145,"Jalan Pengairan, Bekasi Selatan, Jawa Barat, 17141, IDN","Marga Jaya","Bekasi Selatan","Kota Bekasi","Kota Bekasi","Jawa Barat","17141"
732,106.99411812448,-6.25159721818672,-6.25159721818672,106.99411812448,"Dapurrong Ma'ce, Jalan Pintu 3, Bekasi Selatan, Jawa Barat, 17141, IDN","Marga Jaya","Bekasi Selatan","Kota Bekasi","Kota Bekasi","Jawa Barat","17141"
1,107.00538757945,-6.21859348096265,-6.21859348096265,107.00538757945,"Century, Jalan Jokotingkir 19, Bekasi Utara, Jawa Barat, 17142, IDN","Marga Mulya","Bekasi Utara","Kota Bekasi","Kota Bekasi","Jawa Barat","17142"
24,107.003525811184,-6.21669660791872,-6.21669660791872,107.003525811184,"Zefrinazie Makeup, Jalan Sultan Hasanudin 12, Bekasi Utara, Jawa Barat, 17142, IDN","Marga Mulya","Bekasi Utara","Kota Bekasi","Kota Bekasi","Jawa Barat","17142"
71,107.000872494136,-6.2255310112268,-6.2255310112268,107.000872494136,"Hong Tang, Jalan Bulevar Selatan, Bekasi Utara, Jawa Barat, 17142, IDN","Marga Mulya","Bekasi Utara","Kota Bekasi","Kota Bekasi","Jawa Barat","17142"
97,107.005278360399,-6.2282968157469,-6.2282968157469,107.005278360399,"Sicepat Ekspres Bekasi Margamulya, Jalan Bulevar Selatan 23, Bekasi Utara, Jawa Barat, 17142, IDN","Marga Mulya","Bekasi Utara","Kota Bekasi","Kota Bekasi","Jawa Barat","17142"
132,106.9985927653,-6.23183706685183,-6.23183706685183,106.9985927653,"Jalan Pangeran Jayakarta, Bekasi Utara, Jawa Barat, 17142, IDN","Marga Mulya","Bekasi Utara","Kota Bekasi","Kota Bekasi","Jawa Barat","17142"
205,106.997444535006,-6.22584341807789,-6.22584341807789,106.997444535006,"17142, Bekasi Utara, Jawa Barat, IDN","Marga Mulya","Bekasi Utara","Kota Bekasi","Kota Bekasi","Jawa Barat","17142"
306,106.999475986296,-6.21872688442285,-6.21872688442285,106.999475986296,"17142, Bekasi Utara, Jawa Barat, IDN","Marga Mulya","Bekasi Utara","Kota Bekasi","Kota Bekasi","Jawa Barat","17142"
351,107.00036907115,-6.22114793634302,-6.22114793634302,107.00036907115,"Jalan Rawa Bugel, Bekasi Utara, Jawa Barat, 17142, IDN","Marga Mulya","Bekasi Utara","Kota Bekasi","Kota Bekasi","Jawa Barat","17142"
355,106.996374258227,-6.22632682392734,-6.22632682392734,106.996374258227,"Danau Summarecon, Jalan Boulevard Barat, Bekasi Utara, Jawa Barat, 17142, IDN","Marga Mulya","Bekasi Utara","Kota Bekasi","Kota Bekasi","Jawa Barat","17142"
444,107.000186426669,-6.22351082728663,-6.22351082728663,107.000186426669,"Jalan Bulevar Utara Raya, Bekasi Utara, Jawa Barat, 17142, IDN","Marga Mulya","Bekasi Utara","Kota Bekasi","Kota Bekasi","Jawa Barat","17142"
535,107.000472029278,-6.23524228202154,-6.23524228202154,107.000472029278,"Abadi Toko Glass, Jalan Perjuangan 15, Bekasi Utara, Jawa Barat, 17142, IDN","Marga Mulya","Bekasi Utara","Kota Bekasi","Kota Bekasi","Jawa Barat","17142"
599,106.999545539217,-6.22189633277911,-6.22189633277911,106.999545539217,"Futsal Ala-Olo, Jalan Rawa Bugel, Bekasi Utara, Jawa Barat, 17142, IDN","Marga Mulya","Bekasi Utara","Kota Bekasi","Kota Bekasi","Jawa Barat","17142"
679,106.999374666089,-6.21826576415524,-6.21826576415524,106.999374666089,"17142, Bekasi Utara, Jawa Barat, IDN","Marga Mulya","Bekasi Utara","Kota Bekasi","Kota Bekasi","Jawa Barat","17142"
690,107.002528582521,-6.22691803347139,-6.22691803347139,107.002528582521,"Jalan Bulevar Selatan, Bekasi Utara, Jawa Barat, 17142, IDN","Marga Mulya","Bekasi Utara","Kota Bekasi","Kota Bekasi","Jawa Barat","17142"
749,107.009049130421,-6.22562190609457,-6.22562190609457,107.009049130421,"Jalan Perjuangan, Bekasi Utara, Jawa Barat, 17142, IDN","Marga Mulya","Bekasi Utara","Kota Bekasi","Kota Bekasi","Jawa Barat","17142"
3,107.010946858762,-6.25328775699373,-6.25328775699373,107.010946858762,"Jalan Rawa Semut Baru, Bekasi Timur, Jawa Barat, 17113, IDN","Margahayu","Bekasi Timur","Kota Bekasi","Kota Bekasi","Jawa Barat","17113"
13,107.007437859757,-6.25842267294769,-6.25842267294769,107.007437859757,"Jalan Tol Jakarta - Cikampek, Bekasi Timur, Jawa Barat, 17113, IDN","Margahayu","Bekasi Timur","Kota Bekasi","Kota Bekasi","Jawa Barat","17113"
27,107.002285988219,-6.24947162830569,-6.24947162830569,107.002285988219,"Jalan Graha Jelita 5 30, Bekasi Timur, Jawa Barat, 17113, IDN","Margahayu","Bekasi Timur","Kota Bekasi","Kota Bekasi","Jawa Barat","17113"
31,107.01538902453,-6.2545920072759,-6.2545920072759,107.01538902453,"Insan Bhakti Pertiwi, Jalan Rawa Semut Dalam, Bekasi Timur, Jawa Barat, 17113, IDN","Margahayu","Bekasi Timur","Kota Bekasi","Kota Bekasi","Jawa Barat","17113"
